{
  "locations": [
    {
      "location": {
        "name": "betahaus I Barcelona",
        "foursquare": "http://foursquare.com/venue/4fab92ade4b066f573d4bf89",
        "foursquare_id": "4fab92ade4b066f573d4bf89",
        "longitude": 2.15666290852663,
        "latitude": 41.4068213080674
      }
    },
    {
      "location": {
        "name": "betahaus Summit Homebase",
        "foursquare": "http://foursquare.com/venue/514cd6eee4b0157f0869cf86",
        "foursquare_id": "514cd6eee4b0157f0869cf86",
        "longitude": 2.17929600715873,
        "latitude": 41.3984347239749
      }
    },
    {
      "location": {
        "name": "Monument a Cristòfol Colom",
        "foursquare": "http://foursquare.com/venue/4b9cfc34f964a5209c8636e3",
        "foursquare_id": "4b9cfc34f964a5209c8636e3",
        "longitude": 2.177769,
        "latitude": 41.37579
      }
    },
    {
      "location": {
        "name": "A",
        "foursquare": "http://foursquare.com/venue/4fbbb9a6e4b0756c0d3edd94",
        "foursquare_id": "4fbbb9a6e4b0756c0d3edd94",
        "longitude": 2.14993563213611,
        "latitude": 41.3962055907302
      }
    },
    {
      "location": {
        "name": "A",
        "foursquare": "http://foursquare.com/venue/4fa99889e4b096d4708c90cf",
        "foursquare_id": "4fa99889e4b096d4708c90cf",
        "longitude": 2.13460216631081,
        "latitude": 41.3926981457355
      }
    },
    {
      "location": {
        "name": "A",
        "foursquare": "http://foursquare.com/venue/4d483cc9c3e5a35d62ce9b4f",
        "foursquare_id": "4d483cc9c3e5a35d62ce9b4f",
        "longitude": 2.21097,
        "latitude": 41.432527
      }
    },
    {
      "location": {
        "name": "Carme A",
        "foursquare": "http://foursquare.com/venue/4e53ef40e4cd13d104849867",
        "foursquare_id": "4e53ef40e4cd13d104849867",
        "longitude": 2.16958545987521,
        "latitude": 41.3758068785963
      }
    },
    {
      "location": {
        "name": "A Colors",
        "foursquare": "http://foursquare.com/venue/4ddfdf17ae60c015c0a14381",
        "foursquare_id": "4ddfdf17ae60c015c0a14381",
        "longitude": 2.17953597800888,
        "latitude": 41.3873548729665
      }
    },
    {
      "location": {
        "name": "A. Pons",
        "foursquare": "http://foursquare.com/venue/50071406e4b0d3e9fb1efd5c",
        "foursquare_id": "50071406e4b0d3e9fb1efd5c",
        "longitude": 2.162041,
        "latitude": 41.384637
      }
    },
    {
      "location": {
        "name": "A Casa!",
        "foursquare": "http://foursquare.com/venue/4ee260148b816da57cd1e77c",
        "foursquare_id": "4ee260148b816da57cd1e77c",
        "longitude": 2.17941359271554,
        "latitude": 41.4056657215008
      }
    },
    {
      "location": {
        "name": "Comunica +A",
        "foursquare": "http://foursquare.com/venue/4e85843d4901d14ec66465b2",
        "foursquare_id": "4e85843d4901d14ec66465b2",
        "longitude": 2.17394019055346,
        "latitude": 41.3995282163915
      }
    },
    {
      "location": {
        "name": "a casa",
        "foursquare": "http://foursquare.com/venue/4fab975fe4b0d7ccc928e28f",
        "foursquare_id": "4fab975fe4b0d7ccc928e28f",
        "longitude": 2.18924387065038,
        "latitude": 41.37543580486
      }
    },
    {
      "location": {
        "name": "..a casa",
        "foursquare": "http://foursquare.com/venue/4fabb725e4b0d7ccc9348678",
        "foursquare_id": "4fabb725e4b0d7ccc9348678",
        "longitude": 2.18924387065038,
        "latitude": 41.37543580486
      }
    },
    {
      "location": {
        "name": "A Fond",
        "foursquare": "http://foursquare.com/venue/4fd76f7be4b0130777b5f37f",
        "foursquare_id": "4fd76f7be4b0130777b5f37f",
        "longitude": 2.16063761711121,
        "latitude": 41.3757362365723
      }
    },
    {
      "location": {
        "name": "A poc a poc",
        "foursquare": "http://foursquare.com/venue/4b785ea0f964a52000c92ee3",
        "foursquare_id": "4b785ea0f964a52000c92ee3",
        "longitude": 2.13889836560312,
        "latitude": 41.3750426247458
      }
    },
    {
      "location": {
        "name": "A Priori",
        "foursquare": "http://foursquare.com/venue/4f2ffed56b740061f43e15b1",
        "foursquare_id": "4f2ffed56b740061f43e15b1",
        "longitude": 2.16505765914917,
        "latitude": 41.4026702886151
      }
    },
    {
      "location": {
        "name": "A SAC!!!",
        "foursquare": "http://foursquare.com/venue/4f0b0ea2e4b00a27549a2493",
        "foursquare_id": "4f0b0ea2e4b00a27549a2493",
        "longitude": 2.14826416206154,
        "latitude": 41.3862139644156
      }
    },
    {
      "location": {
        "name": "Hipnosis A&A",
        "foursquare": "http://foursquare.com/venue/50042d438055e753b49d2b16",
        "foursquare_id": "50042d438055e753b49d2b16",
        "longitude": 2.15436100959778,
        "latitude": 41.4017689637069
      }
    },
    {
      "location": {
        "name": "A casa!",
        "foursquare": "http://foursquare.com/venue/4bc5ed60b387d13accf5c0e8",
        "foursquare_id": "4bc5ed60b387d13accf5c0e8",
        "longitude": 2.14993563213611,
        "latitude": 41.3962055907302
      }
    },
    {
      "location": {
        "name": "A' cas!!",
        "foursquare": "http://foursquare.com/venue/4f3e22bee4b0abb6d6420e66",
        "foursquare_id": "4f3e22bee4b0abb6d6420e66",
        "longitude": 2.14498854882125,
        "latitude": 41.3856496218353
      }
    },
    {
      "location": {
        "name": "a bao a qu",
        "foursquare": "http://foursquare.com/venue/4f130cfde4b072565e4ee343",
        "foursquare_id": "4f130cfde4b072565e4ee343",
        "longitude": 2.16027998516509,
        "latitude": 41.4062331172094
      }
    },
    {
      "location": {
        "name": "A Caseta",
        "foursquare": "http://foursquare.com/venue/4eb441f6dab4fe511122b299",
        "foursquare_id": "4eb441f6dab4fe511122b299",
        "longitude": 2.19907629301424,
        "latitude": 41.3952800163872
      }
    },
    {
      "location": {
        "name": "A Caseta",
        "foursquare": "http://foursquare.com/venue/4ed09c094690a03b5d9f157e",
        "foursquare_id": "4ed09c094690a03b5d9f157e",
        "longitude": 2.14993563213611,
        "latitude": 41.3962055907302
      }
    },
    {
      "location": {
        "name": "A casa",
        "foursquare": "http://foursquare.com/venue/4c236abb9085d13a8fd187cc",
        "foursquare_id": "4c236abb9085d13a8fd187cc",
        "longitude": 2.16958545987521,
        "latitude": 41.4058508439967
      }
    },
    {
      "location": {
        "name": "Roza A",
        "foursquare": "http://foursquare.com/venue/4ec450f69a522f580b57981b",
        "foursquare_id": "4ec450f69a522f580b57981b",
        "longitude": 2.16867546585866,
        "latitude": 41.3594983873218
      }
    },
    {
      "location": {
        "name": "A Ver...",
        "foursquare": "http://foursquare.com/venue/4f884f30e4b005979d2ed4ce",
        "foursquare_id": "4f884f30e4b005979d2ed4ce",
        "longitude": 2.14604842096636,
        "latitude": 41.3995122484101
      }
    },
    {
      "location": {
        "name": "A casetaaaaa",
        "foursquare": "http://foursquare.com/venue/4ea485bd6c25b62f3e4427dd",
        "foursquare_id": "4ea485bd6c25b62f3e4427dd",
        "longitude": 2.16958545987521,
        "latitude": 41.4058508439967
      }
    },
    {
      "location": {
        "name": "A laxiña",
        "foursquare": "http://foursquare.com/venue/4c221cfa99282d7f318e66b0",
        "foursquare_id": "4c221cfa99282d7f318e66b0",
        "longitude": 2.14044570922852,
        "latitude": 41.388896
      }
    },
    {
      "location": {
        "name": "Doble A+A",
        "foursquare": "http://foursquare.com/venue/531ee6c6498e9fa0667b0020",
        "foursquare_id": "531ee6c6498e9fa0667b0020",
        "longitude": 2.13387966156006,
        "latitude": 41.3785313905228
      }
    },
    {
      "location": {
        "name": "A Caseta",
        "foursquare": "http://foursquare.com/venue/4f623edbe4b0deb11c0882b9",
        "foursquare_id": "4f623edbe4b0deb11c0882b9",
        "longitude": 2.17941359271554,
        "latitude": 41.4156767579157
      }
    },
    {
      "location": {
        "name": "A Lareira",
        "foursquare": "http://foursquare.com/venue/524a8ee9498ebdced769a96c",
        "foursquare_id": "524a8ee9498ebdced769a96c",
        "longitude": 2.20224300061155,
        "latitude": 41.4054891282849
      }
    },
    {
      "location": {
        "name": "A Casa",
        "foursquare": "http://foursquare.com/venue/4f34697de4b04e887cfe8485",
        "foursquare_id": "4f34697de4b04e887cfe8485",
        "longitude": 2.15975947279409,
        "latitude": 41.3759910991277
      }
    },
    {
      "location": {
        "name": ",+b",
        "foursquare": "http://foursquare.com/venue/4cfcc6007945224b7ed68ce7",
        "foursquare_id": "4cfcc6007945224b7ed68ce7",
        "longitude": 2.17234220738912,
        "latitude": 41.3960969096026
      }
    },
    {
      "location": {
        "name": "B&B Born",
        "foursquare": "http://foursquare.com/venue/4fea505fe4b00153403b25f8",
        "foursquare_id": "4fea505fe4b00153403b25f8",
        "longitude": 2.175589,
        "latitude": 41.386286
      }
    },
    {
      "location": {
        "name": "B & B Good Time",
        "foursquare": "http://foursquare.com/venue/4fea10dfe4b0e37edcbdaf10",
        "foursquare_id": "4fea10dfe4b0e37edcbdaf10",
        "longitude": 2.1752724647522,
        "latitude": 41.3867797851562
      }
    },
    {
      "location": {
        "name": "Bo de B",
        "foursquare": "http://foursquare.com/venue/4af58a49f964a520baf921e3",
        "foursquare_id": "4af58a49f964a520baf921e3",
        "longitude": 2.18123980780968,
        "latitude": 41.3814226739672
      }
    },
    {
      "location": {
        "name": "Raquel's B&B",
        "foursquare": "http://foursquare.com/venue/52801182498e3c826dfb1021",
        "foursquare_id": "52801182498e3c826dfb1021",
        "longitude": 2.17735708959279,
        "latitude": 41.389122218764
      }
    },
    {
      "location": {
        "name": "B&O",
        "foursquare": "http://foursquare.com/venue/4f301dc1e4b040ea01ff2a76",
        "foursquare_id": "4f301dc1e4b040ea01ff2a76",
        "longitude": 2.16946310162757,
        "latitude": 41.3851056095256
      }
    },
    {
      "location": {
        "name": "B-Reel",
        "foursquare": "http://foursquare.com/venue/518cef5b454a4b187a3a3ec6",
        "foursquare_id": "518cef5b454a4b187a3a3ec6",
        "longitude": 2.16896295547485,
        "latitude": 41.3848024094741
      }
    },
    {
      "location": {
        "name": "BCN AM B&B",
        "foursquare": "http://foursquare.com/venue/4f81ecb7e4b0cd6f6326091e",
        "foursquare_id": "4f81ecb7e4b0cd6f6326091e",
        "longitude": 2.167459,
        "latitude": 41.387644
      }
    },
    {
      "location": {
        "name": "Blau B&b",
        "foursquare": "http://foursquare.com/venue/4e214ce6483b041af1eb8efd",
        "foursquare_id": "4e214ce6483b041af1eb8efd",
        "longitude": 2.183385,
        "latitude": 41.384488
      }
    },
    {
      "location": {
        "name": "B-Hotel",
        "foursquare": "http://foursquare.com/venue/4b2929f8f964a520159a24e3",
        "foursquare_id": "4b2929f8f964a520159a24e3",
        "longitude": 2.15071023691094,
        "latitude": 41.3763393065769
      }
    },
    {
      "location": {
        "name": "B Huno",
        "foursquare": "http://foursquare.com/venue/4dd0f870887785124433613a",
        "foursquare_id": "4dd0f870887785124433613a",
        "longitude": 2.16836908972736,
        "latitude": 41.3829384703576
      }
    },
    {
      "location": {
        "name": "Petit Born B&B",
        "foursquare": "http://foursquare.com/venue/52f6be7f498ecccfd2afab2b",
        "foursquare_id": "52f6be7f498ecccfd2afab2b",
        "longitude": 2.180098,
        "latitude": 41.384694
      }
    },
    {
      "location": {
        "name": "B Ba",
        "foursquare": "http://foursquare.com/venue/4fe1d12ee4b0b93c909cdc19",
        "foursquare_id": "4fe1d12ee4b0b93c909cdc19",
        "longitude": 2.182579,
        "latitude": 41.384529
      }
    },
    {
      "location": {
        "name": "espai [b]",
        "foursquare": "http://foursquare.com/venue/4e0cc176d4c07c82a2df7a07",
        "foursquare_id": "4e0cc176d4c07c82a2df7a07",
        "longitude": 2.15575628638181,
        "latitude": 41.4034683761913
      }
    },
    {
      "location": {
        "name": "B&B de magouilleurs",
        "foursquare": "http://foursquare.com/venue/4e03405418389833c5960392",
        "foursquare_id": "4e03405418389833c5960392",
        "longitude": 2.17721791307769,
        "latitude": 41.3787372945568
      }
    },
    {
      "location": {
        "name": "Xocolat House B&B",
        "foursquare": "http://foursquare.com/venue/4eef1a5d8231688f2032e9eb",
        "foursquare_id": "4eef1a5d8231688f2032e9eb",
        "longitude": 2.16787007558768,
        "latitude": 41.3843518154334
      }
    },
    {
      "location": {
        "name": "Bailen B",
        "foursquare": "http://foursquare.com/venue/4f8471f2e4b010a79c4da300",
        "foursquare_id": "4f8471f2e4b010a79c4da300",
        "longitude": 2.17941359271554,
        "latitude": 41.3956528795786
      }
    },
    {
      "location": {
        "name": "Barcelona Apartments B&B",
        "foursquare": "http://foursquare.com/venue/4f7ff44fe4b0d9965946d73e",
        "foursquare_id": "4f7ff44fe4b0d9965946d73e",
        "longitude": 2.16257798735948,
        "latitude": 41.3840251994667
      }
    },
    {
      "location": {
        "name": "B Lab",
        "foursquare": "http://foursquare.com/venue/5171a48ce4b075f815db1cfe",
        "foursquare_id": "5171a48ce4b075f815db1cfe",
        "longitude": 2.17917122282194,
        "latitude": 41.3791402712263
      }
    },
    {
      "location": {
        "name": "B&B Quadrat D'Or",
        "foursquare": "http://foursquare.com/venue/5320c72f498e8faffbcd7bda",
        "foursquare_id": "5320c72f498e8faffbcd7bda",
        "longitude": 2.16774052474467,
        "latitude": 41.3951661088285
      }
    },
    {
      "location": {
        "name": "Xocolate B&B",
        "foursquare": "http://foursquare.com/venue/51d5a879498e6c2cbcdee1e2",
        "foursquare_id": "51d5a879498e6c2cbcdee1e2",
        "longitude": 2.16744783717625,
        "latitude": 41.3876460142689
      }
    },
    {
      "location": {
        "name": "b network",
        "foursquare": "http://foursquare.com/venue/5309e62f498ec46ce016898f",
        "foursquare_id": "5309e62f498ec46ce016898f",
        "longitude": 2.168952,
        "latitude": 41.39511
      }
    },
    {
      "location": {
        "name": "Plan B!",
        "foursquare": "http://foursquare.com/venue/4d4fb7de747f6dcb1d42add4",
        "foursquare_id": "4d4fb7de747f6dcb1d42add4",
        "longitude": 2.169626,
        "latitude": 41.389596
      }
    },
    {
      "location": {
        "name": "Barcelonabb B&B",
        "foursquare": "http://foursquare.com/venue/4d677d50fd1b8cfa58191ef0",
        "foursquare_id": "4d677d50fd1b8cfa58191ef0",
        "longitude": 2.16764456139772,
        "latitude": 41.3974652500045
      }
    },
    {
      "location": {
        "name": "B & E's",
        "foursquare": "http://foursquare.com/venue/5298c803498e78bd52bd5281",
        "foursquare_id": "5298c803498e78bd52bd5281",
        "longitude": 2.17941359271554,
        "latitude": 41.3956528795786
      }
    },
    {
      "location": {
        "name": "B&B Rafa & Tibi",
        "foursquare": "http://foursquare.com/venue/507ffacde4b0894ae8063f9f",
        "foursquare_id": "507ffacde4b0894ae8063f9f",
        "longitude": 2.15975947279409,
        "latitude": 41.3759910991277
      }
    },
    {
      "location": {
        "name": "B&B Eduardo",
        "foursquare": "http://foursquare.com/venue/512914c4e4b0c51f957d97b2",
        "foursquare_id": "512914c4e4b0c51f957d97b2",
        "longitude": 2.15872086473061,
        "latitude": 41.3812317342276
      }
    },
    {
      "location": {
        "name": "Las Ramblas Rooms B&B",
        "foursquare": "http://foursquare.com/venue/4d5acaa4e092a35dfbc40e0c",
        "foursquare_id": "4d5acaa4e092a35dfbc40e0c",
        "longitude": 2.175792,
        "latitude": 41.37902
      }
    },
    {
      "location": {
        "name": "B&B by R&T",
        "foursquare": "http://foursquare.com/venue/509e729fe4b0872dbd3911b9",
        "foursquare_id": "509e729fe4b0872dbd3911b9",
        "longitude": 2.15975947279409,
        "latitude": 41.3759910991277
      }
    },
    {
      "location": {
        "name": "Barcelona B&B (Chimney room)",
        "foursquare": "http://foursquare.com/venue/4f892735e4b039b144d2a448",
        "foursquare_id": "4f892735e4b039b144d2a448",
        "longitude": 2.17018294334412,
        "latitude": 41.3980331420898
      }
    },
    {
      "location": {
        "name": "C&A",
        "foursquare": "http://foursquare.com/venue/4c0d25cb2466a593611f7721",
        "foursquare_id": "4c0d25cb2466a593611f7721",
        "longitude": 2.16941356658936,
        "latitude": 41.3851485456688
      }
    },
    {
      "location": {
        "name": "C 2",
        "foursquare": "http://foursquare.com/venue/528b774b11d285bfd1202e3a",
        "foursquare_id": "528b774b11d285bfd1202e3a",
        "longitude": 2.175224,
        "latitude": 41.383325
      }
    },
    {
      "location": {
        "name": "C/ dels tallers",
        "foursquare": "http://foursquare.com/venue/4ef7262d754a3a35a124ac2a",
        "foursquare_id": "4ef7262d754a3a35a124ac2a",
        "longitude": 2.16533727943897,
        "latitude": 41.3851032663295
      }
    },
    {
      "location": {
        "name": "C/ample",
        "foursquare": "http://foursquare.com/venue/50a7da8ee4b041c06566325c",
        "foursquare_id": "50a7da8ee4b041c06566325c",
        "longitude": 2.17941359271554,
        "latitude": 41.3756217806886
      }
    },
    {
      "location": {
        "name": "c/ Corretger",
        "foursquare": "http://foursquare.com/venue/5228846011d24e01fac7622c",
        "foursquare_id": "5228846011d24e01fac7622c",
        "longitude": 2.18171017217683,
        "latitude": 41.3860325467803
      }
    },
    {
      "location": {
        "name": "c/obradors",
        "foursquare": "http://foursquare.com/venue/52f692a7498e04873ed442d4",
        "foursquare_id": "52f692a7498e04873ed442d4",
        "longitude": 2.17712192952478,
        "latitude": 41.3797221901778
      }
    },
    {
      "location": {
        "name": "C&A",
        "foursquare": "http://foursquare.com/venue/4c00d8009cf52d7f5b6614e7",
        "foursquare_id": "4c00d8009cf52d7f5b6614e7",
        "longitude": 2.19068163254692,
        "latitude": 41.4049801444573
      }
    },
    {
      "location": {
        "name": "C de C",
        "foursquare": "http://foursquare.com/venue/52bd81c111d20c3e281acc46",
        "foursquare_id": "52bd81c111d20c3e281acc46",
        "longitude": 2.16968274116516,
        "latitude": 41.3940353393555
      }
    },
    {
      "location": {
        "name": "C/ Campsagrat",
        "foursquare": "http://foursquare.com/venue/513c6c27e4b0b36e09a4bf8d",
        "foursquare_id": "513c6c27e4b0b36e09a4bf8d",
        "longitude": 2.16500353813171,
        "latitude": 41.3764724731445
      }
    },
    {
      "location": {
        "name": "C Valenti",
        "foursquare": "http://foursquare.com/venue/4fa3b142e4b094b944fdc417",
        "foursquare_id": "4fa3b142e4b094b944fdc417",
        "longitude": 2.16289463152051,
        "latitude": 41.3959513137607
      }
    },
    {
      "location": {
        "name": "c/ Riereta",
        "foursquare": "http://foursquare.com/venue/4b852e43f964a520a84f31e3",
        "foursquare_id": "4b852e43f964a520a84f31e3",
        "longitude": 2.16962144765842,
        "latitude": 41.3773173309277
      }
    },
    {
      "location": {
        "name": "c/ Mallorca",
        "foursquare": "http://foursquare.com/venue/4e3ffa13ae60454236856179",
        "foursquare_id": "4e3ffa13ae60454236856179",
        "longitude": 2.15975947279409,
        "latitude": 41.3960222307715
      }
    },
    {
      "location": {
        "name": "C. Mallorca",
        "foursquare": "http://foursquare.com/venue/4cf95d68d7206ea89e5b3269",
        "foursquare_id": "4cf95d68d7206ea89e5b3269",
        "longitude": 2.16958545987521,
        "latitude": 41.3958379939025
      }
    },
    {
      "location": {
        "name": "C/ Elkano",
        "foursquare": "http://foursquare.com/venue/4ec2fad20e016c9af4baa98c",
        "foursquare_id": "4ec2fad20e016c9af4baa98c",
        "longitude": 2.16342237674212,
        "latitude": 41.3738451863774
      }
    },
    {
      "location": {
        "name": "C. Girona, 166",
        "foursquare": "http://foursquare.com/venue/53245a3b498e9e831c5b0b38",
        "foursquare_id": "53245a3b498e9e831c5b0b38",
        "longitude": 2.16448748140963,
        "latitude": 41.3998525051321
      }
    },
    {
      "location": {
        "name": "C/ piquer, 32",
        "foursquare": "http://foursquare.com/venue/4f2b8dbde4b00637a55c7f53",
        "foursquare_id": "4f2b8dbde4b00637a55c7f53",
        "longitude": 2.16958545987521,
        "latitude": 41.3758068785963
      }
    },
    {
      "location": {
        "name": "C-MET",
        "foursquare": "http://foursquare.com/venue/4fec2576067d0cd5a030d17f",
        "foursquare_id": "4fec2576067d0cd5a030d17f",
        "longitude": 2.15227961540222,
        "latitude": 41.3845931169276
      }
    },
    {
      "location": {
        "name": "C/ provença",
        "foursquare": "http://foursquare.com/venue/4eb6a644cc2143e8287cf20b",
        "foursquare_id": "4eb6a644cc2143e8287cf20b",
        "longitude": 2.14993563213611,
        "latitude": 41.3861909191992
      }
    },
    {
      "location": {
        "name": "C/piquer",
        "foursquare": "http://foursquare.com/venue/4f2b2002e4b05a27b90f13fb",
        "foursquare_id": "4f2b2002e4b05a27b90f13fb",
        "longitude": 2.16958545987521,
        "latitude": 41.3758068785963
      }
    },
    {
      "location": {
        "name": "Appunl-C",
        "foursquare": "http://foursquare.com/venue/4df73ef8887712d325cf68b5",
        "foursquare_id": "4df73ef8887712d325cf68b5",
        "longitude": 2.18790696125594,
        "latitude": 41.3790487867465
      }
    },
    {
      "location": {
        "name": "C & G AUDIO",
        "foursquare": "http://foursquare.com/venue/533d6f6a498e996d217273eb",
        "foursquare_id": "533d6f6a498e996d217273eb",
        "longitude": 2.158101,
        "latitude": 41.400983
      }
    },
    {
      "location": {
        "name": "C/Napols",
        "foursquare": "http://foursquare.com/venue/4f2b91ade4b05d297be3a975",
        "foursquare_id": "4f2b91ade4b05d297be3a975",
        "longitude": 2.18481086018144,
        "latitude": 41.3906121890261
      }
    },
    {
      "location": {
        "name": "C. breda",
        "foursquare": "http://foursquare.com/venue/4fe093cee4b0ac20bee46a40",
        "foursquare_id": "4fe093cee4b0ac20bee46a40",
        "longitude": 2.14138229336056,
        "latitude": 41.3863572128217
      }
    },
    {
      "location": {
        "name": "C/ Chopin",
        "foursquare": "http://foursquare.com/venue/4d852b245e70224bf5261d09",
        "foursquare_id": "4d852b245e70224bf5261d09",
        "longitude": 2.14993563213611,
        "latitude": 41.366156161985
      }
    },
    {
      "location": {
        "name": "C/ Rocafort 242",
        "foursquare": "http://foursquare.com/venue/4f37942fe4b0948a82372521",
        "foursquare_id": "4f37942fe4b0948a82372521",
        "longitude": 2.14449938549585,
        "latitude": 41.3857829300645
      }
    },
    {
      "location": {
        "name": "Perruqueria C. Rosichs",
        "foursquare": "http://foursquare.com/venue/4f117cfb754a6fab61af2eac",
        "foursquare_id": "4f117cfb754a6fab61af2eac",
        "longitude": 2.15722560882568,
        "latitude": 41.3778551469687
      }
    },
    {
      "location": {
        "name": "C/ indebil, 14",
        "foursquare": "http://foursquare.com/venue/50256a32e4b012d82f770e2b",
        "foursquare_id": "50256a32e4b012d82f770e2b",
        "longitude": 2.14413970997845,
        "latitude": 41.3696712350382
      }
    },
    {
      "location": {
        "name": "C-TR3S",
        "foursquare": "http://foursquare.com/venue/5281f0d011d2203eeca83892",
        "foursquare_id": "5281f0d011d2203eeca83892",
        "longitude": 2.18711757659912,
        "latitude": 41.4142379760742
      }
    },
    {
      "location": {
        "name": "C/ TORRE VÉLEZ",
        "foursquare": "http://foursquare.com/venue/51fe2751498e72ffcbe5a9bf",
        "foursquare_id": "51fe2751498e72ffcbe5a9bf",
        "longitude": 2.17941359271554,
        "latitude": 41.4156767579157
      }
    },
    {
      "location": {
        "name": "C/ Jaquard # 34",
        "foursquare": "http://foursquare.com/venue/4ef6488a61af4546fd6d872d",
        "foursquare_id": "4ef6488a61af4546fd6d872d",
        "longitude": 2.1302943927414,
        "latitude": 41.376538501911
      }
    },
    {
      "location": {
        "name": "cafe d' annunzio",
        "foursquare": "http://foursquare.com/venue/51fbfb34498ec3c6449966fb",
        "foursquare_id": "51fbfb34498ec3c6449966fb",
        "longitude": 2.17225103288311,
        "latitude": 41.3855115797167
      }
    },
    {
      "location": {
        "name": "D Boy",
        "foursquare": "http://foursquare.com/venue/4e62bde4b993678bb69cdbd8",
        "foursquare_id": "4e62bde4b993678bb69cdbd8",
        "longitude": 2.17160321934219,
        "latitude": 41.3838987089909
      }
    },
    {
      "location": {
        "name": "Mora d Ebre",
        "foursquare": "http://foursquare.com/venue/5048ab03e4b07b8a49275579",
        "foursquare_id": "5048ab03e4b07b8a49275579",
        "longitude": 2.17016846550611,
        "latitude": 41.3861131408238
      }
    },
    {
      "location": {
        "name": "D&D LowRider",
        "foursquare": "http://foursquare.com/venue/4daee465a86e29d01a4d0a3f",
        "foursquare_id": "4daee465a86e29d01a4d0a3f",
        "longitude": 2.16576372111256,
        "latitude": 41.3849591797104
      }
    },
    {
      "location": {
        "name": "D&N",
        "foursquare": "http://foursquare.com/venue/5007eac9e4b0dde02515f825",
        "foursquare_id": "5007eac9e4b0dde02515f825",
        "longitude": 2.17227982481242,
        "latitude": 41.3904504246604
      }
    },
    {
      "location": {
        "name": "D-retail",
        "foursquare": "http://foursquare.com/venue/51cbff91498eae9075a97778",
        "foursquare_id": "51cbff91498eae9075a97778",
        "longitude": 2.1820029524772,
        "latitude": 41.3885943963495
      }
    },
    {
      "location": {
        "name": "Jardin d' Astrid",
        "foursquare": "http://foursquare.com/venue/52f009d2498e21cb8fa094cb",
        "foursquare_id": "52f009d2498e21cb8fa094cb",
        "longitude": 2.16958545987521,
        "latitude": 41.3858233386459
      }
    },
    {
      "location": {
        "name": "+D Conti Stocks",
        "foursquare": "http://foursquare.com/venue/4d289a09ebacb1f75bb3f24f",
        "foursquare_id": "4d289a09ebacb1f75bb3f24f",
        "longitude": 2.159011,
        "latitude": 41.38852
      }
    },
    {
      "location": {
        "name": "d lunic",
        "foursquare": "http://foursquare.com/venue/4faa6a94e4b05573314ba90b",
        "foursquare_id": "4faa6a94e4b05573314ba90b",
        "longitude": 2.16164725833678,
        "latitude": 41.3918624273845
      }
    },
    {
      "location": {
        "name": "D Bebes",
        "foursquare": "http://foursquare.com/venue/50422984e4b05e5c0fa3ba68",
        "foursquare_id": "50422984e4b05e5c0fa3ba68",
        "longitude": 2.166334,
        "latitude": 41.401783
      }
    },
    {
      "location": {
        "name": "D&D Centres Dentals",
        "foursquare": "http://foursquare.com/venue/4e0cc9af45dd7a490b0a5d3f",
        "foursquare_id": "4e0cc9af45dd7a490b0a5d3f",
        "longitude": 2.15907096862793,
        "latitude": 41.3787729043739
      }
    },
    {
      "location": {
        "name": "D•Tres",
        "foursquare": "http://foursquare.com/venue/4e2af2c3483bb05f0598bed1",
        "foursquare_id": "4e2af2c3483bb05f0598bed1",
        "longitude": 2.15358814248742,
        "latitude": 41.3769735850191
      }
    },
    {
      "location": {
        "name": "D&G",
        "foursquare": "http://foursquare.com/venue/4eac0fb0e3000d1f062170d0",
        "foursquare_id": "4eac0fb0e3000d1f062170d0",
        "longitude": 2.16127785061004,
        "latitude": 41.3944866959242
      }
    },
    {
      "location": {
        "name": "D-lirio",
        "foursquare": "http://foursquare.com/venue/4c1ba43963750f473131b567",
        "foursquare_id": "4c1ba43963750f473131b567",
        "longitude": 2.15578506775622,
        "latitude": 41.4018060933478
      }
    },
    {
      "location": {
        "name": "Master D",
        "foursquare": "http://foursquare.com/venue/4fabdc8fe4b09a6d7b0047e0",
        "foursquare_id": "4fabdc8fe4b09a6d7b0047e0",
        "longitude": 2.17194871873715,
        "latitude": 41.3922020845537
      }
    },
    {
      "location": {
        "name": "+D Conti",
        "foursquare": "http://foursquare.com/venue/4dcd1d50d4c065592f5cac0b",
        "foursquare_id": "4dcd1d50d4c065592f5cac0b",
        "longitude": 2.15579466155179,
        "latitude": 41.3749377405117
      }
    },
    {
      "location": {
        "name": "D-lirio",
        "foursquare": "http://foursquare.com/venue/508ed0f8e4b07bfac7653b23",
        "foursquare_id": "508ed0f8e4b07bfac7653b23",
        "longitude": 2.15754556352146,
        "latitude": 41.4032881992765
      }
    },
    {
      "location": {
        "name": "d Taronja",
        "foursquare": "http://foursquare.com/venue/4bc9c703b6c49c745ceb8e91",
        "foursquare_id": "4bc9c703b6c49c745ceb8e91",
        "longitude": 2.15210795402527,
        "latitude": 41.3782668113708
      }
    },
    {
      "location": {
        "name": "D ilcaffé",
        "foursquare": "http://foursquare.com/venue/5040f6e7e4b00690ba09b900",
        "foursquare_id": "5040f6e7e4b00690ba09b900",
        "longitude": 2.14222628464282,
        "latitude": 41.3852449345427
      }
    },
    {
      "location": {
        "name": "D. 477",
        "foursquare": "http://foursquare.com/venue/4ef1cd9346901f707ed62c68",
        "foursquare_id": "4ef1cd9346901f707ed62c68",
        "longitude": 2.14580383286731,
        "latitude": 41.3929974341833
      }
    },
    {
      "location": {
        "name": "caffè d les delices",
        "foursquare": "http://foursquare.com/venue/5312675b11d27df1bd213a7b",
        "foursquare_id": "5312675b11d27df1bd213a7b",
        "longitude": 2.167,
        "latitude": 41.376565
      }
    },
    {
      "location": {
        "name": "D luz",
        "foursquare": "http://foursquare.com/venue/4e2e8891c65b80dfd8374376",
        "foursquare_id": "4e2e8891c65b80dfd8374376",
        "longitude": 2.178703,
        "latitude": 41.404117
      }
    },
    {
      "location": {
        "name": "Pisos D. Ramòn",
        "foursquare": "http://foursquare.com/venue/4d7eabf4870037045e107699",
        "foursquare_id": "4d7eabf4870037045e107699",
        "longitude": 2.15975947279409,
        "latitude": 41.3860075673581
      }
    },
    {
      "location": {
        "name": "Font d' Hermes",
        "foursquare": "http://foursquare.com/venue/50a76a77e4b0740a17aacd35",
        "foursquare_id": "50a76a77e4b0740a17aacd35",
        "longitude": 2.15781420108953,
        "latitude": 41.3863495902916
      }
    },
    {
      "location": {
        "name": "D+D Dept. Técnico",
        "foursquare": "http://foursquare.com/venue/4e293805b0fba988bb73dbc8",
        "foursquare_id": "4e293805b0fba988bb73dbc8",
        "longitude": 2.151392,
        "latitude": 41.384877
      }
    },
    {
      "location": {
        "name": "Sol d invierno",
        "foursquare": "http://foursquare.com/venue/51110a9ee4b0f14524e10455",
        "foursquare_id": "51110a9ee4b0f14524e10455",
        "longitude": 2.16442,
        "latitude": 41.3956
      }
    },
    {
      "location": {
        "name": "Master D",
        "foursquare": "http://foursquare.com/venue/5062d695e4b086f23ba333b9",
        "foursquare_id": "5062d695e4b086f23ba333b9",
        "longitude": 2.15317563137491,
        "latitude": 41.3848125577554
      }
    },
    {
      "location": {
        "name": "Apartamento de D",
        "foursquare": "http://foursquare.com/venue/531b9393498ec8b07cce2c9b",
        "foursquare_id": "531b9393498ec8b07cce2c9b",
        "longitude": 2.15975947279409,
        "latitude": 41.3960222307715
      }
    },
    {
      "location": {
        "name": "D' estètica & Gràcia",
        "foursquare": "http://foursquare.com/venue/4bfe622e2b83b71355e6a998",
        "foursquare_id": "4bfe622e2b83b71355e6a998",
        "longitude": 2.15413,
        "latitude": 41.399893
      }
    },
    {
      "location": {
        "name": "d-uñas",
        "foursquare": "http://foursquare.com/venue/4e42735045dd4a1e043a017b",
        "foursquare_id": "4e42735045dd4a1e043a017b",
        "longitude": 2.14637875556946,
        "latitude": 41.3965096445449
      }
    },
    {
      "location": {
        "name": "Buoni e cattivi",
        "foursquare": "http://foursquare.com/venue/4cb07307cbab236afd43a073",
        "foursquare_id": "4cb07307cbab236afd43a073",
        "longitude": 2.17407935693746,
        "latitude": 41.386420276955
      }
    },
    {
      "location": {
        "name": "Buoni e Cattivi",
        "foursquare": "http://foursquare.com/venue/4db027d14df03036e8b5f5d7",
        "foursquare_id": "4db027d14df03036e8b5f5d7",
        "longitude": 2.175796,
        "latitude": 41.384326
      }
    },
    {
      "location": {
        "name": "Rambla E",
        "foursquare": "http://foursquare.com/venue/50521017e4b07c192802b3ed",
        "foursquare_id": "50521017e4b07c192802b3ed",
        "longitude": 2.17033161246713,
        "latitude": 41.3872143943073
      }
    },
    {
      "location": {
        "name": "E headquarter",
        "foursquare": "http://foursquare.com/venue/501ed3eee4b0af03d006eeac",
        "foursquare_id": "501ed3eee4b0af03d006eeac",
        "longitude": 2.16958545987521,
        "latitude": 41.3858233386459
      }
    },
    {
      "location": {
        "name": "E&TB",
        "foursquare": "http://foursquare.com/venue/515ed7dbe4b04a2b2df7f474",
        "foursquare_id": "515ed7dbe4b04a2b2df7f474",
        "longitude": 2.167949,
        "latitude": 41.387751
      }
    },
    {
      "location": {
        "name": "E. García",
        "foursquare": "http://foursquare.com/venue/4ee9efdebe7b7263da1aaee6",
        "foursquare_id": "4ee9efdebe7b7263da1aaee6",
        "longitude": 2.16533670455029,
        "latitude": 41.3863994762905
      }
    },
    {
      "location": {
        "name": "Esto é Er Bronx",
        "foursquare": "http://foursquare.com/venue/4fcc9a3fe4b05b50352f197d",
        "foursquare_id": "4fcc9a3fe4b05b50352f197d",
        "longitude": 2.170357,
        "latitude": 41.380164
      }
    },
    {
      "location": {
        "name": "Carboni e Pasta",
        "foursquare": "http://foursquare.com/venue/525e78e7498e7caa0e8db8fc",
        "foursquare_id": "525e78e7498e7caa0e8db8fc",
        "longitude": 2.16787007558768,
        "latitude": 41.3882538947366
      }
    },
    {
      "location": {
        "name": "e-urek",
        "foursquare": "http://foursquare.com/venue/517eae76e4b01798e46ccc0f",
        "foursquare_id": "517eae76e4b01798e46ccc0f",
        "longitude": 2.17873927971047,
        "latitude": 41.385393940914
      }
    },
    {
      "location": {
        "name": "Casa Mel e Isa",
        "foursquare": "http://foursquare.com/venue/50b0b4afe4b04cb0a21450dc",
        "foursquare_id": "50b0b4afe4b04cb0a21450dc",
        "longitude": 2.16958545987521,
        "latitude": 41.3858233386459
      }
    },
    {
      "location": {
        "name": "Da Ciro E Rosetta",
        "foursquare": "http://foursquare.com/venue/4de105d922713271e2c1f740",
        "foursquare_id": "4de105d922713271e2c1f740",
        "longitude": 2.181294,
        "latitude": 41.38617
      }
    },
    {
      "location": {
        "name": "e-growing",
        "foursquare": "http://foursquare.com/venue/503f314cebca66a84ef51985",
        "foursquare_id": "503f314cebca66a84ef51985",
        "longitude": 2.16640949249268,
        "latitude": 41.3981554910153
      }
    },
    {
      "location": {
        "name": "E-nosis Barcelona",
        "foursquare": "http://foursquare.com/venue/5330c617498ee5c4e714cac0",
        "foursquare_id": "5330c617498ee5c4e714cac0",
        "longitude": 2.15722415996847,
        "latitude": 41.3900429560144
      }
    },
    {
      "location": {
        "name": "e@t22",
        "foursquare": "http://foursquare.com/venue/4b6fe945f964a520c9ff2ce3",
        "foursquare_id": "4b6fe945f964a520c9ff2ce3",
        "longitude": 2.153279,
        "latitude": 41.37987
      }
    },
    {
      "location": {
        "name": "Casa Giampaolo E Ines",
        "foursquare": "http://foursquare.com/venue/4e4c19ed483b734b80749d7b",
        "foursquare_id": "4e4c19ed483b734b80749d7b",
        "longitude": 2.16958545987521,
        "latitude": 41.3758068785963
      }
    },
    {
      "location": {
        "name": "e-showbcn",
        "foursquare": "http://foursquare.com/venue/5320646d498e9733c8dc52f4",
        "foursquare_id": "5320646d498e9733c8dc52f4",
        "longitude": 2.14886367789293,
        "latitude": 41.3762799958999
      }
    },
    {
      "location": {
        "name": "Bombardo e Hijos",
        "foursquare": "http://foursquare.com/venue/5256f138498e297611f0a7cb",
        "foursquare_id": "5256f138498e297611f0a7cb",
        "longitude": 2.16133,
        "latitude": 41.389552
      }
    },
    {
      "location": {
        "name": "E-interactive",
        "foursquare": "http://foursquare.com/venue/4eadc059754a69d67754d179",
        "foursquare_id": "4eadc059754a69d67754d179",
        "longitude": 2.15091705322266,
        "latitude": 41.3939703717872
      }
    },
    {
      "location": {
        "name": "La Vita è Bella",
        "foursquare": "http://foursquare.com/venue/4cfe0c69ed7060fc028ab95a",
        "foursquare_id": "4cfe0c69ed7060fc028ab95a",
        "longitude": 2.15881680904265,
        "latitude": 41.3894312660534
      }
    },
    {
      "location": {
        "name": "Casa Giorgio e Valeria",
        "foursquare": "http://foursquare.com/venue/5158ae02e4b0a9d4d12d5e68",
        "foursquare_id": "5158ae02e4b0a9d4d12d5e68",
        "longitude": 2.17941359271554,
        "latitude": 41.3956528795786
      }
    },
    {
      "location": {
        "name": "Agliolio e Peperoncino",
        "foursquare": "http://foursquare.com/venue/4e5e2bcf1f6e3022a720c39d",
        "foursquare_id": "4e5e2bcf1f6e3022a720c39d",
        "longitude": 2.16639280319214,
        "latitude": 41.3794860839844
      }
    },
    {
      "location": {
        "name": "Lia Berti e Grek",
        "foursquare": "http://foursquare.com/venue/501060bce4b0c939222ff4a2",
        "foursquare_id": "501060bce4b0c939222ff4a2",
        "longitude": 2.15672047245465,
        "latitude": 41.3879928430427
      }
    },
    {
      "location": {
        "name": "Casa E",
        "foursquare": "http://foursquare.com/venue/4fa63559e4b0b487cea03e2b",
        "foursquare_id": "4fa63559e4b0b487cea03e2b",
        "longitude": 2.15975947279409,
        "latitude": 41.4060350889985
      }
    },
    {
      "location": {
        "name": "Chez Anits e Daniel",
        "foursquare": "http://foursquare.com/venue/52c3288a498eeb85d5d4ae13",
        "foursquare_id": "52c3288a498eeb85d5d4ae13",
        "longitude": 2.166057,
        "latitude": 41.373222
      }
    },
    {
      "location": {
        "name": "Casa Aline e Rafa",
        "foursquare": "http://foursquare.com/venue/4f345913e4b0cb01ba3c13e1",
        "foursquare_id": "4f345913e4b0cb01ba3c13e1",
        "longitude": 2.15975947279409,
        "latitude": 41.3860075673581
      }
    },
    {
      "location": {
        "name": "Chez Cássio e Adri",
        "foursquare": "http://foursquare.com/venue/52c73cb711d239e1255bd67f",
        "foursquare_id": "52c73cb711d239e1255bd67f",
        "longitude": 2.151417,
        "latitude": 41.389046
      }
    },
    {
      "location": {
        "name": "Trattoria Anima e Cuore",
        "foursquare": "http://foursquare.com/venue/4fbc0392e4b0d84e4ff08123",
        "foursquare_id": "4fbc0392e4b0d84e4ff08123",
        "longitude": 2.15248972011518,
        "latitude": 41.3860626383346
      }
    },
    {
      "location": {
        "name": "Terraza Ni e Julin",
        "foursquare": "http://foursquare.com/venue/531e24d8498e04e506247cbd",
        "foursquare_id": "531e24d8498e04e506247cbd",
        "longitude": 2.186375,
        "latitude": 41.410315
      }
    },
    {
      "location": {
        "name": "Moll Adossat E",
        "foursquare": "http://foursquare.com/venue/4ec8a64ee5fa232a769b78af",
        "foursquare_id": "4ec8a64ee5fa232a769b78af",
        "longitude": 2.18066385813088,
        "latitude": 41.3621769521604
      }
    },
    {
      "location": {
        "name": "casa E",
        "foursquare": "http://foursquare.com/venue/51ec12fd498e8999452035ff",
        "foursquare_id": "51ec12fd498e8999452035ff",
        "longitude": 2.15975947279409,
        "latitude": 41.4060350889985
      }
    },
    {
      "location": {
        "name": "Keep calm and f*** off",
        "foursquare": "http://foursquare.com/venue/50842314e4b0921f5d294058",
        "foursquare_id": "50842314e4b0921f5d294058",
        "longitude": 2.174187,
        "latitude": 41.3841593
      }
    },
    {
      "location": {
        "name": "Escola Adultes F. Layret",
        "foursquare": "http://foursquare.com/venue/51791630e4b0ee9dbc83dd42",
        "foursquare_id": "51791630e4b0ee9dbc83dd42",
        "longitude": 2.172584,
        "latitude": 41.382896
      }
    },
    {
      "location": {
        "name": "S&F",
        "foursquare": "http://foursquare.com/venue/4e2ffef8e4cdb5a70d6d9239",
        "foursquare_id": "4e2ffef8e4cdb5a70d6d9239",
        "longitude": 2.18281410783833,
        "latitude": 41.3855648455455
      }
    },
    {
      "location": {
        "name": "F&T",
        "foursquare": "http://foursquare.com/venue/4f466443e4b00ed04a3e8ad2",
        "foursquare_id": "4f466443e4b00ed04a3e8ad2",
        "longitude": 2.15349197387695,
        "latitude": 41.3910245301348
      }
    },
    {
      "location": {
        "name": "farmacia F. Guilera Mas",
        "foursquare": "http://foursquare.com/venue/520526cd11d21ee8fd9fbe81",
        "foursquare_id": "520526cd11d21ee8fd9fbe81",
        "longitude": 2.17416093743153,
        "latitude": 41.372768421802
      }
    },
    {
      "location": {
        "name": "Farmàcia F. Iglesias",
        "foursquare": "http://foursquare.com/venue/516d7999e4b06c51db636890",
        "foursquare_id": "516d7999e4b06c51db636890",
        "longitude": 2.159432,
        "latitude": 41.374966
      }
    },
    {
      "location": {
        "name": "F**** me I'm retarded",
        "foursquare": "http://foursquare.com/venue/4e94ea01b8f74cf190badc8e",
        "foursquare_id": "4e94ea01b8f74cf190badc8e",
        "longitude": 2.156407,
        "latitude": 41.393295
      }
    },
    {
      "location": {
        "name": "The f*ing Terraza",
        "foursquare": "http://foursquare.com/venue/4e7c96af1f6e3466f0c4e510",
        "foursquare_id": "4e7c96af1f6e3466f0c4e510",
        "longitude": 2.16048121452332,
        "latitude": 41.3715858459473
      }
    },
    {
      "location": {
        "name": "Asociación F",
        "foursquare": "http://foursquare.com/venue/4d853b5ef9f3a1cd28c2c764",
        "foursquare_id": "4d853b5ef9f3a1cd28c2c764",
        "longitude": 2.154027,
        "latitude": 41.382979
      }
    },
    {
      "location": {
        "name": "A&F Asesoría Fiscal, Laboral y Contable",
        "foursquare": "http://foursquare.com/venue/507d88e4e4b043916f817c2d",
        "foursquare_id": "507d88e4e4b043916f817c2d",
        "longitude": 2.15552997589111,
        "latitude": 41.3886451721191
      }
    },
    {
      "location": {
        "name": "F N A C House's",
        "foursquare": "http://foursquare.com/venue/5161e65fe4b046bf1c07ba2a",
        "foursquare_id": "5161e65fe4b046bf1c07ba2a",
        "longitude": 2.14993563213611,
        "latitude": 41.3761744428274
      }
    },
    {
      "location": {
        "name": "F*ck Vision Studio",
        "foursquare": "http://foursquare.com/venue/4cbb66cc0180721ec35b9f61",
        "foursquare_id": "4cbb66cc0180721ec35b9f61",
        "longitude": 2.17941359271554,
        "latitude": 41.4056657215008
      }
    },
    {
      "location": {
        "name": "S&F Catsitters House of BCN",
        "foursquare": "http://foursquare.com/venue/52ab641c11d2d465f9ed42a8",
        "foursquare_id": "52ab641c11d2d465f9ed42a8",
        "longitude": 2.16015,
        "latitude": 41.387044
      }
    },
    {
      "location": {
        "name": "Dr. F. Saval",
        "foursquare": "http://foursquare.com/venue/509807dae4b0cb1b3372239a",
        "foursquare_id": "509807dae4b0cb1b3372239a",
        "longitude": 2.15831,
        "latitude": 41.395907
      }
    },
    {
      "location": {
        "name": "Cooking Lounge F",
        "foursquare": "http://foursquare.com/venue/507a7beee4b0d3b80942314a",
        "foursquare_id": "507a7beee4b0d3b80942314a",
        "longitude": 2.18873262413448,
        "latitude": 41.3968469566028
      }
    },
    {
      "location": {
        "name": "Temporary (?) Jungle F. Poo",
        "foursquare": "http://foursquare.com/venue/51d72ae9498eeedbb586645e",
        "foursquare_id": "51d72ae9498eeedbb586645e",
        "longitude": 2.20574848580303,
        "latitude": 41.3988849220775
      }
    },
    {
      "location": {
        "name": "Bugaderia Sagrada F",
        "foursquare": "http://foursquare.com/venue/51a4646c498e9de82e4dab3b",
        "foursquare_id": "51a4646c498e9de82e4dab3b",
        "longitude": 2.176116,
        "latitude": 41.405664
      }
    },
    {
      "location": {
        "name": "My F***ing Lovely Loft",
        "foursquare": "http://foursquare.com/venue/4d7ff2579d78a35d2e51390f",
        "foursquare_id": "4d7ff2579d78a35d2e51390f",
        "longitude": 2.15975947279409,
        "latitude": 41.3860075673581
      }
    },
    {
      "location": {
        "name": "F Pujades",
        "foursquare": "http://foursquare.com/venue/4d3b60371fc36dcb580271f5",
        "foursquare_id": "4d3b60371fc36dcb580271f5",
        "longitude": 2.213937,
        "latitude": 41.406586
      }
    },
    {
      "location": {
        "name": "Sudleasing España E F C",
        "foursquare": "http://foursquare.com/venue/4df9ec4e18a8ab1870bc66e7",
        "foursquare_id": "4df9ec4e18a8ab1870bc66e7",
        "longitude": 2.150403,
        "latitude": 41.393805
      }
    },
    {
      "location": {
        "name": "Farmacia F Massana",
        "foursquare": "http://foursquare.com/venue/4cbd4a24a33bb1f7956b9efd",
        "foursquare_id": "4cbd4a24a33bb1f7956b9efd",
        "longitude": 2.12649996316809,
        "latitude": 41.3951217078789
      }
    },
    {
      "location": {
        "name": "Club F",
        "foursquare": "http://foursquare.com/venue/4ee4871793adf8e1a7b6b0ab",
        "foursquare_id": "4ee4871793adf8e1a7b6b0ab",
        "longitude": 2.12449621197876,
        "latitude": 41.3918127119391
      }
    },
    {
      "location": {
        "name": "Exclusif",
        "foursquare": "http://foursquare.com/venue/4ca4781a7f84224b7647cd58",
        "foursquare_id": "4ca4781a7f84224b7647cd58",
        "longitude": 2.15875924243086,
        "latitude": 41.3838434276761
      }
    },
    {
      "location": {
        "name": "F. Diestro Peluquería Masculina",
        "foursquare": "http://foursquare.com/venue/4dd12e75fa7664b7c6e8fcd7",
        "foursquare_id": "4dd12e75fa7664b7c6e8fcd7",
        "longitude": 2.1307474446273,
        "latitude": 41.401013242287
      }
    },
    {
      "location": {
        "name": "Zona F",
        "foursquare": "http://foursquare.com/venue/516303c9e4b0e85bc2c73035",
        "foursquare_id": "516303c9e4b0e85bc2c73035",
        "longitude": 2.138383,
        "latitude": 41.360984
      }
    },
    {
      "location": {
        "name": "Zona F Autoescola",
        "foursquare": "http://foursquare.com/venue/4f3e75c0e4b0a4b082de7cfa",
        "foursquare_id": "4f3e75c0e4b0a4b082de7cfa",
        "longitude": 2.13963202108661,
        "latitude": 41.3666973424269
      }
    },
    {
      "location": {
        "name": "Zona F",
        "foursquare": "http://foursquare.com/venue/4d516f3de02754812097aab6",
        "foursquare_id": "4d516f3de02754812097aab6",
        "longitude": 2.135923,
        "latitude": 41.375598
      }
    },
    {
      "location": {
        "name": "Autoescola Zona F",
        "foursquare": "http://foursquare.com/venue/4e804eace5fa79f0e3c72739",
        "foursquare_id": "4e804eace5fa79f0e3c72739",
        "longitude": 2.13264599751314,
        "latitude": 41.3808946449953
      }
    },
    {
      "location": {
        "name": "Laboratorio Medico / Analisis Clinicos",
        "foursquare": "http://foursquare.com/venue/4d848ed20b8edcb329888adc",
        "foursquare_id": "4d848ed20b8edcb329888adc",
        "longitude": 2.15284824371338,
        "latitude": 41.3933747752253
      }
    },
    {
      "location": {
        "name": "Recinto Privado F",
        "foursquare": "http://foursquare.com/venue/516802e4e4b0f182266c51c9",
        "foursquare_id": "516802e4e4b0f182266c51c9",
        "longitude": 2.124529,
        "latitude": 41.392087
      }
    },
    {
      "location": {
        "name": "El Corte Inglés",
        "foursquare": "http://foursquare.com/venue/4b3b4eb3f964a520547225e3",
        "foursquare_id": "4b3b4eb3f964a520547225e3",
        "longitude": 2.17094779014587,
        "latitude": 41.3878853716272
      }
    },
    {
      "location": {
        "name": "G",
        "foursquare": "http://foursquare.com/venue/4f325ef2e4b03558770ebed0",
        "foursquare_id": "4f325ef2e4b03558770ebed0",
        "longitude": 2.16186,
        "latitude": 41.391467
      }
    },
    {
      "location": {
        "name": "G!",
        "foursquare": "http://foursquare.com/venue/4f3a70a5e4b0b5606e86e1a7",
        "foursquare_id": "4f3a70a5e4b0b5606e86e1a7",
        "longitude": 2.15975947279409,
        "latitude": 41.3860075673581
      }
    },
    {
      "location": {
        "name": "G and G rooms",
        "foursquare": "http://foursquare.com/venue/522ad699498eb0c9aa1c0de9",
        "foursquare_id": "522ad699498eb0c9aa1c0de9",
        "longitude": 2.17461371421814,
        "latitude": 41.3872222900391
      }
    },
    {
      "location": {
        "name": "Salva G",
        "foursquare": "http://foursquare.com/venue/4c335374ac0ab71317b81c1e",
        "foursquare_id": "4c335374ac0ab71317b81c1e",
        "longitude": 2.17623889043738,
        "latitude": 41.3814119632596
      }
    },
    {
      "location": {
        "name": "G-star",
        "foursquare": "http://foursquare.com/venue/4cd5acda94848cfa7f16e8b1",
        "foursquare_id": "4cd5acda94848cfa7f16e8b1",
        "longitude": 2.183377,
        "latitude": 41.385411
      }
    },
    {
      "location": {
        "name": "G-Star RAW",
        "foursquare": "http://foursquare.com/venue/4c598a846407d13ae561b228",
        "foursquare_id": "4c598a846407d13ae561b228",
        "longitude": 2.161223725,
        "latitude": 41.394511
      }
    },
    {
      "location": {
        "name": "Carlos G.",
        "foursquare": "http://foursquare.com/venue/4cfc9625dccef04d852ac19c",
        "foursquare_id": "4cfc9625dccef04d852ac19c",
        "longitude": 2.17941359271554,
        "latitude": 41.3856382325181
      }
    },
    {
      "location": {
        "name": "g-shock pop-up store",
        "foursquare": "http://foursquare.com/venue/51952d9f498e5625bfb7bb3e",
        "foursquare_id": "51952d9f498e5625bfb7bb3e",
        "longitude": 2.184993,
        "latitude": 41.385712
      }
    },
    {
      "location": {
        "name": "Green G Golf Store",
        "foursquare": "http://foursquare.com/venue/532701f5498eb79a55fd9ee3",
        "foursquare_id": "532701f5498eb79a55fd9ee3",
        "longitude": 2.159795,
        "latitude": 41.389703
      }
    },
    {
      "location": {
        "name": "GTA G Point",
        "foursquare": "http://foursquare.com/venue/4d07b4b78620224be690b940",
        "foursquare_id": "4d07b4b78620224be690b940",
        "longitude": 2.159409,
        "latitude": 41.383569
      }
    },
    {
      "location": {
        "name": "G & G's House",
        "foursquare": "http://foursquare.com/venue/5018e1f5e4b0d57076725de9",
        "foursquare_id": "5018e1f5e4b0d57076725de9",
        "longitude": 2.14993563213611,
        "latitude": 41.3962055907302
      }
    },
    {
      "location": {
        "name": "G-Star Raw",
        "foursquare": "http://foursquare.com/venue/4c28c4d93492a59380d6b728",
        "foursquare_id": "4c28c4d93492a59380d6b728",
        "longitude": 2.135649,
        "latitude": 41.389954
      }
    },
    {
      "location": {
        "name": "G-Star Store Barcelona, Plaza Comercial ",
        "foursquare": "http://foursquare.com/venue/5149e151f31cc2a961ef3ddc",
        "foursquare_id": "5149e151f31cc2a961ef3ddc",
        "longitude": 2.1847665309906,
        "latitude": 41.3845045698782
      }
    },
    {
      "location": {
        "name": "G\tFour Apt BCN",
        "foursquare": "http://foursquare.com/venue/501a99d0e4b0265f38b7785f",
        "foursquare_id": "501a99d0e4b0265f38b7785f",
        "longitude": 2.15878558158875,
        "latitude": 41.3898086547852
      }
    },
    {
      "location": {
        "name": "G-Star Store Barcelona, Provença",
        "foursquare": "http://foursquare.com/venue/5149e27df31cc2a961f14764",
        "foursquare_id": "5149e27df31cc2a961f14764",
        "longitude": 2.16095924377441,
        "latitude": 41.3943325562173
      }
    },
    {
      "location": {
        "name": "P&G salon professional",
        "foursquare": "http://foursquare.com/venue/51dab8cb498e309c76446eee",
        "foursquare_id": "51dab8cb498e309c76446eee",
        "longitude": 2.174608,
        "latitude": 41.394528
      }
    },
    {
      "location": {
        "name": "G&J Restaurante",
        "foursquare": "http://foursquare.com/venue/503d0f75e4b02dbf2073b441",
        "foursquare_id": "503d0f75e4b02dbf2073b441",
        "longitude": 2.15748320145841,
        "latitude": 41.3980271785626
      }
    },
    {
      "location": {
        "name": "Kodigo G",
        "foursquare": "http://foursquare.com/venue/4cf19eebc9af6dcbe6ee9a7f",
        "foursquare_id": "4cf19eebc9af6dcbe6ee9a7f",
        "longitude": 2.16139622,
        "latitude": 41.38521201
      }
    },
    {
      "location": {
        "name": "G & G Ingenieros",
        "foursquare": "http://foursquare.com/venue/5031ea49e4b0bf3e6b3f6f6e",
        "foursquare_id": "5031ea49e4b0bf3e6b3f6f6e",
        "longitude": 2.140704,
        "latitude": 41.390072
      }
    },
    {
      "location": {
        "name": "G & J's Pommery Bar",
        "foursquare": "http://foursquare.com/venue/5082ffb0e4b0361f66ad2fe0",
        "foursquare_id": "5082ffb0e4b0361f66ad2fe0",
        "longitude": 2.171449,
        "latitude": 41.404143
      }
    },
    {
      "location": {
        "name": "G de Joies",
        "foursquare": "http://foursquare.com/venue/4c4495c4da2176b0a2e8627a",
        "foursquare_id": "4c4495c4da2176b0a2e8627a",
        "longitude": 2.15941646563071,
        "latitude": 41.4009269512158
      }
    },
    {
      "location": {
        "name": "S•G•M www.sgm.cat",
        "foursquare": "http://foursquare.com/venue/4ebb90c97ee5cb25a586b992",
        "foursquare_id": "4ebb90c97ee5cb25a586b992",
        "longitude": 2.16412305831909,
        "latitude": 41.396842956543
      }
    },
    {
      "location": {
        "name": "Cia. Roberto G. Alonso",
        "foursquare": "http://foursquare.com/venue/51adf89c498eafba20e69f74",
        "foursquare_id": "51adf89c498eafba20e69f74",
        "longitude": 2.16580210482229,
        "latitude": 41.3744716449869
      }
    },
    {
      "location": {
        "name": "R&G&G Home",
        "foursquare": "http://foursquare.com/venue/4d2432afdaa937040c15c381",
        "foursquare_id": "4d2432afdaa937040c15c381",
        "longitude": 2.15975947279409,
        "latitude": 41.3960222307715
      }
    },
    {
      "location": {
        "name": "Casa Manu G.",
        "foursquare": "http://foursquare.com/venue/4fd4c81fe4b0b3abb3e08f37",
        "foursquare_id": "4fd4c81fe4b0b3abb3e08f37",
        "longitude": 2.14993563213611,
        "latitude": 41.3861909191992
      }
    },
    {
      "location": {
        "name": "G-Star España",
        "foursquare": "http://foursquare.com/venue/4de49278d4c07044059e6ef5",
        "foursquare_id": "4de49278d4c07044059e6ef5",
        "longitude": 2.18959190563365,
        "latitude": 41.3976211889227
      }
    },
    {
      "location": {
        "name": "Hotel Grandos G-Bar",
        "foursquare": "http://foursquare.com/venue/5048ef12e4b0a0848378fb05",
        "foursquare_id": "5048ef12e4b0a0848378fb05",
        "longitude": 2.156721,
        "latitude": 41.391731
      }
    },
    {
      "location": {
        "name": "Farmacia G. Torrents",
        "foursquare": "http://foursquare.com/venue/4e2aa3fdaeb745b1faba633e",
        "foursquare_id": "4e2aa3fdaeb745b1faba633e",
        "longitude": 2.17422008514404,
        "latitude": 41.3974472590118
      }
    },
    {
      "location": {
        "name": "H&M Offices",
        "foursquare": "http://foursquare.com/venue/4c5282649426c92857038175",
        "foursquare_id": "4c5282649426c92857038175",
        "longitude": 2.173491,
        "latitude": 41.385102
      }
    },
    {
      "location": {
        "name": "H&M",
        "foursquare": "http://foursquare.com/venue/5329c42511d2a657f648aacb",
        "foursquare_id": "5329c42511d2a657f648aacb",
        "longitude": 2.1736047,
        "latitude": 41.3852339
      }
    },
    {
      "location": {
        "name": "H&M",
        "foursquare": "http://foursquare.com/venue/4bead7c94f5576b0ee33b396",
        "foursquare_id": "4bead7c94f5576b0ee33b396",
        "longitude": 2.17306681134459,
        "latitude": 41.385503323513
      }
    },
    {
      "location": {
        "name": "H&M",
        "foursquare": "http://foursquare.com/venue/4bead6da4f5576b0d533b396",
        "foursquare_id": "4bead6da4f5576b0d533b396",
        "longitude": 2.17281727753991,
        "latitude": 41.3836087862237
      }
    },
    {
      "location": {
        "name": "H&M",
        "foursquare": "http://foursquare.com/venue/4bead80a4f5576b0f633b396",
        "foursquare_id": "4bead80a4f5576b0f633b396",
        "longitude": 2.17012048121836,
        "latitude": 41.3852077813589
      }
    },
    {
      "location": {
        "name": "H&M",
        "foursquare": "http://foursquare.com/venue/4b9fc625f964a520653d37e3",
        "foursquare_id": "4b9fc625f964a520653d37e3",
        "longitude": 2.16889210087044,
        "latitude": 41.3886124375994
      }
    },
    {
      "location": {
        "name": "H&M",
        "foursquare": "http://foursquare.com/venue/4bf911255efe2d7f99a96b34",
        "foursquare_id": "4bf911255efe2d7f99a96b34",
        "longitude": 2.18265571540726,
        "latitude": 41.3752935979897
      }
    },
    {
      "location": {
        "name": "H&M",
        "foursquare": "http://foursquare.com/venue/4bb31803715eef3b7aee85bb",
        "foursquare_id": "4bb31803715eef3b7aee85bb",
        "longitude": 2.13269394180759,
        "latitude": 41.389357660618
      }
    },
    {
      "location": {
        "name": "Hotel Neri",
        "foursquare": "http://foursquare.com/venue/4bc81c0392b376b0f4e8503a",
        "foursquare_id": "4bc81c0392b376b0f4e8503a",
        "longitude": 2.17524549216297,
        "latitude": 41.3833226611816
      }
    },
    {
      "location": {
        "name": "H10 Racó del Pi",
        "foursquare": "http://foursquare.com/venue/4adcda4cf964a520c33f21e3",
        "foursquare_id": "4adcda4cf964a520c33f21e3",
        "longitude": 2.17379622578133,
        "latitude": 41.3833306658684
      }
    },
    {
      "location": {
        "name": "H&M",
        "foursquare": "http://foursquare.com/venue/4c4195b9d7fad13a89bb07da",
        "foursquare_id": "4c4195b9d7fad13a89bb07da",
        "longitude": 2.19052791595459,
        "latitude": 41.4047867434959
      }
    },
    {
      "location": {
        "name": "Hotel H 10",
        "foursquare": "http://foursquare.com/venue/51af9391498e8ab45b50d5e1",
        "foursquare_id": "51af9391498e8ab45b50d5e1",
        "longitude": 2.17965769767761,
        "latitude": 41.3843116760254
      }
    },
    {
      "location": {
        "name": "H3",
        "foursquare": "http://foursquare.com/venue/4b545c6cf964a520a5b827e3",
        "foursquare_id": "4b545c6cf964a520a5b827e3",
        "longitude": 2.17516390970369,
        "latitude": 41.3866051631379
      }
    },
    {
      "location": {
        "name": "Oscar H Grand tailoring",
        "foursquare": "http://foursquare.com/venue/4e21cb6f18a88345f04f9044",
        "foursquare_id": "4e21cb6f18a88345f04f9044",
        "longitude": 2.18056786723371,
        "latitude": 41.3865442261086
      }
    },
    {
      "location": {
        "name": "H La Paloma",
        "foursquare": "http://foursquare.com/venue/4f4927fe754a1c43d6d7345b",
        "foursquare_id": "4f4927fe754a1c43d6d7345b",
        "longitude": 2.16417789459229,
        "latitude": 41.381954765616
      }
    },
    {
      "location": {
        "name": "Casa H&E",
        "foursquare": "http://foursquare.com/venue/52373e7211d239c3d1779e00",
        "foursquare_id": "52373e7211d239c3d1779e00",
        "longitude": 2.16958545987521,
        "latitude": 41.3858233386459
      }
    },
    {
      "location": {
        "name": "H+K Strategies",
        "foursquare": "http://foursquare.com/venue/523b069f11d2e01d2e7c8141",
        "foursquare_id": "523b069f11d2e01d2e7c8141",
        "longitude": 2.160503,
        "latitude": 41.396956
      }
    },
    {
      "location": {
        "name": "H&M",
        "foursquare": "http://foursquare.com/venue/4cb2dfe81168a093b2f93d23",
        "foursquare_id": "4cb2dfe81168a093b2f93d23",
        "longitude": 2.21604108810425,
        "latitude": 41.4097919252236
      }
    },
    {
      "location": {
        "name": "Alimentació Super H.",
        "foursquare": "http://foursquare.com/venue/504e5b04e4b095e4c205fc15",
        "foursquare_id": "504e5b04e4b095e4c205fc15",
        "longitude": 2.16480893687118,
        "latitude": 41.3771462459
      }
    },
    {
      "location": {
        "name": "L'Horiginal",
        "foursquare": "http://foursquare.com/venue/4cb5e3389c7ba35d2ec18d06",
        "foursquare_id": "4cb5e3389c7ba35d2ec18d06",
        "longitude": 2.16637306637088,
        "latitude": 41.382741572877
      }
    },
    {
      "location": {
        "name": "Parada bus H 12",
        "foursquare": "http://foursquare.com/venue/506b19e1e4b0af5c12352b8b",
        "foursquare_id": "506b19e1e4b0af5c12352b8b",
        "longitude": 2.1768,
        "latitude": 41.39513
      }
    },
    {
      "location": {
        "name": "H&M",
        "foursquare": "http://foursquare.com/venue/4c542fbe72cf0f4729801cd4",
        "foursquare_id": "4c542fbe72cf0f4729801cd4",
        "longitude": 2.12891129438377,
        "latitude": 41.3583984726
      }
    },
    {
      "location": {
        "name": "H₂O",
        "foursquare": "http://foursquare.com/venue/5069898be4b007c9389cc281",
        "foursquare_id": "5069898be4b007c9389cc281",
        "longitude": 2.19762385934746,
        "latitude": 41.4004243165749
      }
    },
    {
      "location": {
        "name": "bus H 8",
        "foursquare": "http://foursquare.com/venue/532dd7cc498e2c3dfa5203e6",
        "foursquare_id": "532dd7cc498e2c3dfa5203e6",
        "longitude": 2.16511120305715,
        "latitude": 41.4008724178458
      }
    },
    {
      "location": {
        "name": "Hotel Ronda",
        "foursquare": "http://foursquare.com/venue/4d5df2b3d7206ea83d6ed7f1",
        "foursquare_id": "4d5df2b3d7206ea83d6ed7f1",
        "longitude": 2.1639597236927,
        "latitude": 41.3812117370098
      }
    },
    {
      "location": {
        "name": "Tienda Movistar",
        "foursquare": "http://foursquare.com/venue/4cd1ab682fd9b60ce14588eb",
        "foursquare_id": "4cd1ab682fd9b60ce14588eb",
        "longitude": 2.17888805964782,
        "latitude": 41.3841318333953
      }
    },
    {
      "location": {
        "name": "Xarcuteria Germans Gracia",
        "foursquare": "http://foursquare.com/venue/4ef4c720b8f77e0f9841f43e",
        "foursquare_id": "4ef4c720b8f77e0f9841f43e",
        "longitude": 2.16408669948578,
        "latitude": 41.3842389280066
      }
    },
    {
      "location": {
        "name": "A & H Basar",
        "foursquare": "http://foursquare.com/venue/4e634c241838ad3d0f2b40b4",
        "foursquare_id": "4e634c241838ad3d0f2b40b4",
        "longitude": 2.183612,
        "latitude": 41.407788
      }
    },
    {
      "location": {
        "name": "H. Herms",
        "foursquare": "http://foursquare.com/venue/4e84619f49012a8363357cf6",
        "foursquare_id": "4e84619f49012a8363357cf6",
        "longitude": 2.135789,
        "latitude": 41.389838
      }
    },
    {
      "location": {
        "name": "H&M",
        "foursquare": "http://foursquare.com/venue/4c1ce1ceeac020a1102d47c2",
        "foursquare_id": "4c1ce1ceeac020a1102d47c2",
        "longitude": 2.19748020172119,
        "latitude": 41.4396379743824
      }
    },
    {
      "location": {
        "name": "Montcada i Reixac",
        "foursquare": "http://foursquare.com/venue/5333870a498e64fd6a50ac56",
        "foursquare_id": "5333870a498e64fd6a50ac56",
        "longitude": 2.1734035,
        "latitude": 41.3850639
      }
    },
    {
      "location": {
        "name": "I Am",
        "foursquare": "http://foursquare.com/venue/4e3c211a52b1a04aff05e15f",
        "foursquare_id": "4e3c211a52b1a04aff05e15f",
        "longitude": 2.17293244681635,
        "latitude": 41.3853575019958
      }
    },
    {
      "location": {
        "name": "Sky I",
        "foursquare": "http://foursquare.com/venue/4e5895aa7d8b966a15bd3829",
        "foursquare_id": "4e5895aa7d8b966a15bd3829",
        "longitude": 2.174188,
        "latitude": 41.386335
      }
    },
    {
      "location": {
        "name": "Dolç i Salat",
        "foursquare": "http://foursquare.com/venue/4e9f05a277c80ac54c1851f8",
        "foursquare_id": "4e9f05a277c80ac54c1851f8",
        "longitude": 2.17768343621156,
        "latitude": 41.3870566586182
      }
    },
    {
      "location": {
        "name": "Facultat de Geografia i Història UB",
        "foursquare": "http://foursquare.com/venue/4b6d3b92f964a520b36c2ce3",
        "foursquare_id": "4b6d3b92f964a520b36c2ce3",
        "longitude": 2.16704583481146,
        "latitude": 41.3839970292808
      }
    },
    {
      "location": {
        "name": "Ski I",
        "foursquare": "http://foursquare.com/venue/4fc684a4e4b01da28e239300",
        "foursquare_id": "4fc684a4e4b01da28e239300",
        "longitude": 2.1747751953102,
        "latitude": 41.3869082722719
      }
    },
    {
      "location": {
        "name": "METRO Jaume I",
        "foursquare": "http://foursquare.com/venue/4b8bd6fef964a52002ae32e3",
        "foursquare_id": "4b8bd6fef964a52002ae32e3",
        "longitude": 2.17868328094482,
        "latitude": 41.3837961891423
      }
    },
    {
      "location": {
        "name": "Biblioteca de Filosofia, Geografia i Història UB",
        "foursquare": "http://foursquare.com/venue/4b6d3bc1f964a520be6c2ce3",
        "foursquare_id": "4b6d3bc1f964a520be6c2ce3",
        "longitude": 2.16694593429565,
        "latitude": 41.38405378303
      }
    },
    {
      "location": {
        "name": "Carrer Jaume I",
        "foursquare": "http://foursquare.com/venue/520893dc11d2a646c62bdc82",
        "foursquare_id": "520893dc11d2a646c62bdc82",
        "longitude": 2.17728990087662,
        "latitude": 41.3827121913918
      }
    },
    {
      "location": {
        "name": "Tapa I Apat",
        "foursquare": "http://foursquare.com/venue/4d959c1cdaec224ba9e7013e",
        "foursquare_id": "4d959c1cdaec224ba9e7013e",
        "longitude": 2.1759841,
        "latitude": 41.37778258
      }
    },
    {
      "location": {
        "name": "Where am I? Who am I?",
        "foursquare": "http://foursquare.com/venue/518ee8f7498ea3bcc1de00b4",
        "foursquare_id": "518ee8f7498ea3bcc1de00b4",
        "longitude": 2.178149,
        "latitude": 41.38529
      }
    },
    {
      "location": {
        "name": "I Griega",
        "foursquare": "http://foursquare.com/venue/4d6e0a2303cba35d80e51bf5",
        "foursquare_id": "4d6e0a2303cba35d80e51bf5",
        "longitude": 2.168304,
        "latitude": 41.393291
      }
    },
    {
      "location": {
        "name": "Tasca i Vins",
        "foursquare": "http://foursquare.com/venue/4c0ea78ed64c0f470b8c285d",
        "foursquare_id": "4c0ea78ed64c0f470b8c285d",
        "longitude": 2.1847128868103,
        "latitude": 41.384485
      }
    },
    {
      "location": {
        "name": "Rosses i Torrades",
        "foursquare": "http://foursquare.com/venue/4dbd9d5f6a23e294ba49a1b0",
        "foursquare_id": "4dbd9d5f6a23e294ba49a1b0",
        "longitude": 2.15649981113082,
        "latitude": 41.3842450709849
      }
    },
    {
      "location": {
        "name": "100 i MES",
        "foursquare": "http://foursquare.com/venue/4c2a40778abca593c561fe1f",
        "foursquare_id": "4c2a40778abca593c561fe1f",
        "longitude": 2.17014447335584,
        "latitude": 41.3821375687434
      }
    },
    {
      "location": {
        "name": "Rivera I",
        "foursquare": "http://foursquare.com/venue/4b77e91ff964a52070ae2ee3",
        "foursquare_id": "4b77e91ff964a52070ae2ee3",
        "longitude": 2.17987193934708,
        "latitude": 41.3832552371765
      }
    },
    {
      "location": {
        "name": "Parc de Carles I",
        "foursquare": "http://foursquare.com/venue/4c49ca5bb5eec9b610203aa5",
        "foursquare_id": "4c49ca5bb5eec9b610203aa5",
        "longitude": 2.19370132184556,
        "latitude": 41.3883303946243
      }
    },
    {
      "location": {
        "name": "I Cut",
        "foursquare": "http://foursquare.com/venue/51e80d69498e1decf983a29c",
        "foursquare_id": "51e80d69498e1decf983a29c",
        "longitude": 2.16183915965199,
        "latitude": 41.3898881720098
      }
    },
    {
      "location": {
        "name": "Departament d'Antropologia I Historia d'America i Africa",
        "foursquare": "http://foursquare.com/venue/4fcf3d13e4b046dae1f285ce",
        "foursquare_id": "4fcf3d13e4b046dae1f285ce",
        "longitude": 2.16732788380476,
        "latitude": 41.3841109956983
      }
    },
    {
      "location": {
        "name": "I&IMS",
        "foursquare": "http://foursquare.com/venue/50645bf0e4b0a723936fcc2b",
        "foursquare_id": "50645bf0e4b0a723936fcc2b",
        "longitude": 2.165621,
        "latitude": 41.394767
      }
    },
    {
      "location": {
        "name": "i do",
        "foursquare": "http://foursquare.com/venue/525e93f0498e2c14b9843839",
        "foursquare_id": "525e93f0498e2c14b9843839",
        "longitude": 2.1607933074125,
        "latitude": 41.3770845140827
      }
    },
    {
      "location": {
        "name": "Metro Juame I",
        "foursquare": "http://foursquare.com/venue/5254617011d25753fee12bb2",
        "foursquare_id": "5254617011d25753fee12bb2",
        "longitude": 2.180279,
        "latitude": 41.385731
      }
    },
    {
      "location": {
        "name": "Fundació Ferrer i Guàrdia",
        "foursquare": "http://foursquare.com/venue/51e5801c498e3bbf11863080",
        "foursquare_id": "51e5801c498e3bbf11863080",
        "longitude": 2.178545,
        "latitude": 41.380454
      }
    },
    {
      "location": {
        "name": "Casa Lleó i Morera",
        "foursquare": "http://foursquare.com/venue/52ce973011d29b037dd3ba78",
        "foursquare_id": "52ce973011d29b037dd3ba78",
        "longitude": 2.16575412519024,
        "latitude": 41.3914031169663
      }
    },
    {
      "location": {
        "name": "Yonquilandia I",
        "foursquare": "http://foursquare.com/venue/4e9dc46ecc2132d67d62f930",
        "foursquare_id": "4e9dc46ecc2132d67d62f930",
        "longitude": 2.168962,
        "latitude": 41.377697
      }
    },
    {
      "location": {
        "name": "I-man",
        "foursquare": "http://foursquare.com/venue/4ff1df64e4b0b29eb21c317b",
        "foursquare_id": "4ff1df64e4b0b29eb21c317b",
        "longitude": 2.16795164482833,
        "latitude": 41.400574657572
      }
    },
    {
      "location": {
        "name": "Tasca I Vins",
        "foursquare": "http://foursquare.com/venue/4be5e5e3910020a188abd314",
        "foursquare_id": "4be5e5e3910020a188abd314",
        "longitude": 2.17177596870818,
        "latitude": 41.3934952870139
      }
    },
    {
      "location": {
        "name": "Pà i Café",
        "foursquare": "http://foursquare.com/venue/521c613711d2e666dea1544b",
        "foursquare_id": "521c613711d2e666dea1544b",
        "longitude": 2.182623,
        "latitude": 41.391629
      }
    },
    {
      "location": {
        "name": "Paula I",
        "foursquare": "http://foursquare.com/venue/4fd4631fe4b013c581020d89",
        "foursquare_id": "4fd4631fe4b013c581020d89",
        "longitude": 2.181522,
        "latitude": 41.37505
      }
    },
    {
      "location": {
        "name": "J. Miro",
        "foursquare": "http://foursquare.com/venue/4dcbb3577d8b84bcd5593d83",
        "foursquare_id": "4dcbb3577d8b84bcd5593d83",
        "longitude": 2.18183496354758,
        "latitude": 41.3834480155698
      }
    },
    {
      "location": {
        "name": "Peluqueria J.",
        "foursquare": "http://foursquare.com/venue/4e0ee2d5fa76d62f444d2a62",
        "foursquare_id": "4e0ee2d5fa76d62f444d2a62",
        "longitude": 2.18354368016529,
        "latitude": 41.3908195752325
      }
    },
    {
      "location": {
        "name": "Peixos J. Arrom",
        "foursquare": "http://foursquare.com/venue/4cd52719dfb4a1cdfc64575c",
        "foursquare_id": "4cd52719dfb4a1cdfc64575c",
        "longitude": 2.178221,
        "latitude": 41.386193
      }
    },
    {
      "location": {
        "name": "Jaime J. Renobell",
        "foursquare": "http://foursquare.com/venue/4cb047d9c5e6a1cd6eadd3f6",
        "foursquare_id": "4cb047d9c5e6a1cd6eadd3f6",
        "longitude": 2.18479646020834,
        "latitude": 41.3863607034704
      }
    },
    {
      "location": {
        "name": "Electricidad J. Argerich",
        "foursquare": "http://foursquare.com/venue/51b60f2b498e2cb88f644f48",
        "foursquare_id": "51b60f2b498e2cb88f644f48",
        "longitude": 2.18252038955688,
        "latitude": 41.3870582580566
      }
    },
    {
      "location": {
        "name": "J",
        "foursquare": "http://foursquare.com/venue/4cf3f499cc61a35d63f4229e",
        "foursquare_id": "4cf3f499cc61a35d63f4229e",
        "longitude": 2.208576,
        "latitude": 41.453268
      }
    },
    {
      "location": {
        "name": "J&P's",
        "foursquare": "http://foursquare.com/venue/4e512660e4cdc76dc9c87c90",
        "foursquare_id": "4e512660e4cdc76dc9c87c90",
        "longitude": 2.15975947279409,
        "latitude": 41.3759910991277
      }
    },
    {
      "location": {
        "name": "J. Navarro Florista",
        "foursquare": "http://foursquare.com/venue/4bff591a4e5d0f47940d7e1f",
        "foursquare_id": "4bff591a4e5d0f47940d7e1f",
        "longitude": 2.19017277000476,
        "latitude": 41.3993114391562
      }
    },
    {
      "location": {
        "name": "J&M",
        "foursquare": "http://foursquare.com/venue/4c6fbea69c6d6dcb9958d07a",
        "foursquare_id": "4c6fbea69c6d6dcb9958d07a",
        "longitude": 2.153518,
        "latitude": 41.401729
      }
    },
    {
      "location": {
        "name": "J. Deulofeu",
        "foursquare": "http://foursquare.com/venue/52939258498ed70b0774e8a5",
        "foursquare_id": "52939258498ed70b0774e8a5",
        "longitude": 2.144418,
        "latitude": 41.375765
      }
    },
    {
      "location": {
        "name": "Farmacia J. Salvador",
        "foursquare": "http://foursquare.com/venue/4f15985ee4b045626b42fccb",
        "foursquare_id": "4f15985ee4b045626b42fccb",
        "longitude": 2.16916080620663,
        "latitude": 41.3762776233307
      }
    },
    {
      "location": {
        "name": "Forn J. Ginebra",
        "foursquare": "http://foursquare.com/venue/4ba1ec52f964a52011d237e3",
        "foursquare_id": "4ba1ec52f964a52011d237e3",
        "longitude": 2.159674,
        "latitude": 41.390018
      }
    },
    {
      "location": {
        "name": "5 J",
        "foursquare": "http://foursquare.com/venue/51321086e4b0ed2727a4022d",
        "foursquare_id": "51321086e4b0ed2727a4022d",
        "longitude": 2.152717,
        "latitude": 41.391519
      }
    },
    {
      "location": {
        "name": "J. Roca Joyero",
        "foursquare": "http://foursquare.com/venue/4adcda59f964a5201e4421e3",
        "foursquare_id": "4adcda59f964a5201e4421e3",
        "longitude": 2.14797639730368,
        "latitude": 41.3937138793934
      }
    },
    {
      "location": {
        "name": "Ortopedia J. Ribas",
        "foursquare": "http://foursquare.com/venue/4ffc69e6e4b079b51e710c4d",
        "foursquare_id": "4ffc69e6e4b079b51e710c4d",
        "longitude": 2.15387594317991,
        "latitude": 41.3773996288065
      }
    },
    {
      "location": {
        "name": "Churrería J. Balcells",
        "foursquare": "http://foursquare.com/venue/4d3359a5f8c9224ba195b9d2",
        "foursquare_id": "4d3359a5f8c9224ba195b9d2",
        "longitude": 2.16093778610229,
        "latitude": 41.397833568334
      }
    },
    {
      "location": {
        "name": "L&j",
        "foursquare": "http://foursquare.com/venue/4efdd3a629c201c6fb6312c8",
        "foursquare_id": "4efdd3a629c201c6fb6312c8",
        "longitude": 2.13608852803217,
        "latitude": 41.3817840052431
      }
    },
    {
      "location": {
        "name": "Ortodoncia J. Vilarrasa",
        "foursquare": "http://foursquare.com/venue/511a7c4be4b0faff593619dd",
        "foursquare_id": "511a7c4be4b0faff593619dd",
        "longitude": 2.15238419623502,
        "latitude": 41.388597787063
      }
    },
    {
      "location": {
        "name": "Consulta dentista Dr. J",
        "foursquare": "http://foursquare.com/venue/500045d2e4b0c2bcacd4ce25",
        "foursquare_id": "500045d2e4b0c2bcacd4ce25",
        "longitude": 2.15217348837209,
        "latitude": 41.3891188372093
      }
    },
    {
      "location": {
        "name": "J. Dominguez Polleria-Hueveria",
        "foursquare": "http://foursquare.com/venue/51a9cddf498e247aaed64e20",
        "foursquare_id": "51a9cddf498e247aaed64e20",
        "longitude": 2.157852,
        "latitude": 41.408333
      }
    },
    {
      "location": {
        "name": "Granja J. Sorigue",
        "foursquare": "http://foursquare.com/venue/4e9bfd52b63497cdaa6a0ba6",
        "foursquare_id": "4e9bfd52b63497cdaa6a0ba6",
        "longitude": 2.167244,
        "latitude": 41.402505
      }
    },
    {
      "location": {
        "name": "J. Pons Tot Bici",
        "foursquare": "http://foursquare.com/venue/4f5e40b0e4b0369072a767bb",
        "foursquare_id": "4f5e40b0e4b0369072a767bb",
        "longitude": 2.20226220800755,
        "latitude": 41.4012550639728
      }
    },
    {
      "location": {
        "name": "Xarcuters J. Tena",
        "foursquare": "http://foursquare.com/venue/513b7422e4b093aa3fe960cd",
        "foursquare_id": "513b7422e4b093aa3fe960cd",
        "longitude": 2.1997365055968,
        "latitude": 41.4020414491202
      }
    },
    {
      "location": {
        "name": "J&J Carniceria",
        "foursquare": "http://foursquare.com/venue/4e9c4dba0aaf5f690f10ab4d",
        "foursquare_id": "4e9c4dba0aaf5f690f10ab4d",
        "longitude": 2.12563709283086,
        "latitude": 41.3945945428002
      }
    },
    {
      "location": {
        "name": "J. Brossa Xarcuteria",
        "foursquare": "http://foursquare.com/venue/4f50ed5ae4b0c5e18899c314",
        "foursquare_id": "4f50ed5ae4b0c5e18899c314",
        "longitude": 2.13448230057466,
        "latitude": 41.4054908036796
      }
    },
    {
      "location": {
        "name": "Pollería J. Domínguez",
        "foursquare": "http://foursquare.com/venue/4daad1845da3ba8a47930840",
        "foursquare_id": "4daad1845da3ba8a47930840",
        "longitude": 2.15794372334758,
        "latitude": 41.4081149068046
      }
    },
    {
      "location": {
        "name": "j. roger",
        "foursquare": "http://foursquare.com/venue/50ab4f09e4b01ef718876332",
        "foursquare_id": "50ab4f09e4b01ef718876332",
        "longitude": 2.20081207260653,
        "latitude": 41.4175264340135
      }
    },
    {
      "location": {
        "name": "Farmacia J. R. Pifarre",
        "foursquare": "http://foursquare.com/venue/4ece911102d5feaa1a2bbda0",
        "foursquare_id": "4ece911102d5feaa1a2bbda0",
        "longitude": 2.136955,
        "latitude": 41.379541
      }
    },
    {
      "location": {
        "name": "Taurus J",
        "foursquare": "http://foursquare.com/venue/4e8a68a1b803fd0aa054508b",
        "foursquare_id": "4e8a68a1b803fd0aa054508b",
        "longitude": 2.170684,
        "latitude": 41.353274
      }
    },
    {
      "location": {
        "name": "Flat J",
        "foursquare": "http://foursquare.com/venue/51bceb45498e1315f8a8ee73",
        "foursquare_id": "51bceb45498e1315f8a8ee73",
        "longitude": 2.12978381593972,
        "latitude": 41.3827962137857
      }
    },
    {
      "location": {
        "name": "K+K Hotel Picasso Barcelona",
        "foursquare": "http://foursquare.com/venue/4fdbd21de4b0767cc68fefaa",
        "foursquare_id": "4fdbd21de4b0767cc68fefaa",
        "longitude": 2.18397259712219,
        "latitude": 41.3866779626107
      }
    },
    {
      "location": {
        "name": "Foto K",
        "foursquare": "http://foursquare.com/venue/4e0ca8d945dd7a490b08fe33",
        "foursquare_id": "4e0ca8d945dd7a490b08fe33",
        "longitude": 2.1639213415548,
        "latitude": 41.3841292354842
      }
    },
    {
      "location": {
        "name": "K+K Hotel Picasso Barcelona Roof Pool",
        "foursquare": "http://foursquare.com/venue/51580ff0e4b00a2d63af2336",
        "foursquare_id": "51580ff0e4b00a2d63af2336",
        "longitude": 2.18411486674571,
        "latitude": 41.386754862497
      }
    },
    {
      "location": {
        "name": "Foto K",
        "foursquare": "http://foursquare.com/venue/4cb0395475ebb60c8db9c2ad",
        "foursquare_id": "4cb0395475ebb60c8db9c2ad",
        "longitude": 2.16528392750378,
        "latitude": 41.3860908109282
      }
    },
    {
      "location": {
        "name": "Sol Y K",
        "foursquare": "http://foursquare.com/venue/4efc9ed60e6152f777f0a3f0",
        "foursquare_id": "4efc9ed60e6152f777f0a3f0",
        "longitude": 2.177453,
        "latitude": 41.381072
      }
    },
    {
      "location": {
        "name": "K-Tuin",
        "foursquare": "http://foursquare.com/venue/4f4face0e4b03cdd7a5a7073",
        "foursquare_id": "4f4face0e4b03cdd7a5a7073",
        "longitude": 2.14459529945354,
        "latitude": 41.3979167178422
      }
    },
    {
      "location": {
        "name": "J K Asian food store",
        "foursquare": "http://foursquare.com/venue/517a4e4d498ea18ae3f5cb4b",
        "foursquare_id": "517a4e4d498ea18ae3f5cb4b",
        "longitude": 2.172389,
        "latitude": 41.379127
      }
    },
    {
      "location": {
        "name": "+ K Tapes",
        "foursquare": "http://foursquare.com/venue/4bf6f4c05317a593cf29fd7e",
        "foursquare_id": "4bf6f4c05317a593cf29fd7e",
        "longitude": 2.13839967852316,
        "latitude": 41.3791831752572
      }
    },
    {
      "location": {
        "name": "Mer-k-2",
        "foursquare": "http://foursquare.com/venue/4e82ff547ee6cb77878f3574",
        "foursquare_id": "4e82ff547ee6cb77878f3574",
        "longitude": 2.15847141047733,
        "latitude": 41.4019207821118
      }
    },
    {
      "location": {
        "name": "K-2",
        "foursquare": "http://foursquare.com/venue/4efb0928b63446a50be3fa99",
        "foursquare_id": "4efb0928b63446a50be3fa99",
        "longitude": 2.17821615415563,
        "latitude": 41.4055685493481
      }
    },
    {
      "location": {
        "name": "K-nos",
        "foursquare": "http://foursquare.com/venue/4d21d5a486e154818b40c53a",
        "foursquare_id": "4d21d5a486e154818b40c53a",
        "longitude": 2.14789966034618,
        "latitude": 41.3763279949724
      }
    },
    {
      "location": {
        "name": "associaxion k-lite",
        "foursquare": "http://foursquare.com/venue/4f86d5a1e4b0af4fd055c29d",
        "foursquare_id": "4f86d5a1e4b0af4fd055c29d",
        "longitude": 2.15522863111635,
        "latitude": 41.3898088530397
      }
    },
    {
      "location": {
        "name": "Room 302 At K+K Picasso Hotel Barçelona",
        "foursquare": "http://foursquare.com/venue/50be6a2be4b04651f6d68ef8",
        "foursquare_id": "50be6a2be4b04651f6d68ef8",
        "longitude": 2.183808,
        "latitude": 41.386734
      }
    },
    {
      "location": {
        "name": "K@Scunder'Home 😇",
        "foursquare": "http://foursquare.com/venue/51eb3273498e036d13f45b21",
        "foursquare_id": "51eb3273498e036d13f45b21",
        "longitude": 2.14993563213611,
        "latitude": 41.3761744428274
      }
    },
    {
      "location": {
        "name": "Mer-K-2",
        "foursquare": "http://foursquare.com/venue/50705947e4b07504259e506d",
        "foursquare_id": "50705947e4b07504259e506d",
        "longitude": 2.178764,
        "latitude": 41.407724
      }
    },
    {
      "location": {
        "name": "K-Dreams Group",
        "foursquare": "http://foursquare.com/venue/52dd590511d2d5132e8eec50",
        "foursquare_id": "52dd590511d2d5132e8eec50",
        "longitude": 2.15008288621902,
        "latitude": 41.3955237263325
      }
    },
    {
      "location": {
        "name": "K@Scunder'Home! 😇",
        "foursquare": "http://foursquare.com/venue/51eb312d498e401ec329ae29",
        "foursquare_id": "51eb312d498e401ec329ae29",
        "longitude": 2.14993563213611,
        "latitude": 41.3761744428274
      }
    },
    {
      "location": {
        "name": "k!vins",
        "foursquare": "http://foursquare.com/venue/4fac2ac5e4b08541e8d40820",
        "foursquare_id": "4fac2ac5e4b08541e8d40820",
        "longitude": 2.20477294921875,
        "latitude": 41.3982963562012
      }
    },
    {
      "location": {
        "name": "K Nichols Mess Square",
        "foursquare": "http://foursquare.com/venue/4e3a91f2b61c8493db55caef",
        "foursquare_id": "4e3a91f2b61c8493db55caef",
        "longitude": 2.135859,
        "latitude": 41.375901
      }
    },
    {
      "location": {
        "name": "#pispetit",
        "foursquare": "http://foursquare.com/venue/4e4a1170cc3f549fa824e641",
        "foursquare_id": "4e4a1170cc3f549fa824e641",
        "longitude": 2.16958545987521,
        "latitude": 41.3758068785963
      }
    },
    {
      "location": {
        "name": "K&J's House",
        "foursquare": "http://foursquare.com/venue/4ff52427e4b0c98ddbef8de1",
        "foursquare_id": "4ff52427e4b0c98ddbef8de1",
        "longitude": 2.128517,
        "latitude": 41.397182
      }
    },
    {
      "location": {
        "name": "K Dave",
        "foursquare": "http://foursquare.com/venue/4dbdb2ad0cb691071cc01dc9",
        "foursquare_id": "4dbdb2ad0cb691071cc01dc9",
        "longitude": 2.12047699532865,
        "latitude": 41.3767192183845
      }
    },
    {
      "location": {
        "name": "Casa de K&D",
        "foursquare": "http://foursquare.com/venue/4eac9cf8f7906795c35fc7cc",
        "foursquare_id": "4eac9cf8f7906795c35fc7cc",
        "longitude": 2.14011393856442,
        "latitude": 41.3963880743235
      }
    },
    {
      "location": {
        "name": "K Korte",
        "foursquare": "http://foursquare.com/venue/5138a1b2e4b0288544fe04d9",
        "foursquare_id": "5138a1b2e4b0288544fe04d9",
        "longitude": 2.181793,
        "latitude": 41.424288
      }
    },
    {
      "location": {
        "name": "Vila K",
        "foursquare": "http://foursquare.com/venue/4ea7ffc7d3e33e1d4f28e08a",
        "foursquare_id": "4ea7ffc7d3e33e1d4f28e08a",
        "longitude": 2.15975947279409,
        "latitude": 41.4060350889985
      }
    },
    {
      "location": {
        "name": "A & K Supermercat 24 H",
        "foursquare": "http://foursquare.com/venue/52e8059e11d293292edf12a3",
        "foursquare_id": "52e8059e11d293292edf12a3",
        "longitude": 2.133238,
        "latitude": 41.375399
      }
    },
    {
      "location": {
        "name": "K Nadezhde",
        "foursquare": "http://foursquare.com/venue/4edb55ecf5b9213989c76384",
        "foursquare_id": "4edb55ecf5b9213989c76384",
        "longitude": 2.18535232543945,
        "latitude": 41.4089775085449
      }
    },
    {
      "location": {
        "name": "Oh k guai",
        "foursquare": "http://foursquare.com/venue/51c0a5b9498e8958ad901475",
        "foursquare_id": "51c0a5b9498e8958ad901475",
        "longitude": 2.17833471298218,
        "latitude": 41.4123954772949
      }
    },
    {
      "location": {
        "name": "Tintoreria K",
        "foursquare": "http://foursquare.com/venue/4d5e52c729ef236a8dd48a59",
        "foursquare_id": "4d5e52c729ef236a8dd48a59",
        "longitude": 2.126514344481,
        "latitude": 41.3984118012488
      }
    },
    {
      "location": {
        "name": "L. T. W Tatoo",
        "foursquare": "http://foursquare.com/venue/4c17679dc2dfc928d1e8a769",
        "foursquare_id": "4c17679dc2dfc928d1e8a769",
        "longitude": 2.17060032639797,
        "latitude": 41.3849649632093
      }
    },
    {
      "location": {
        "name": "L Oficina",
        "foursquare": "http://foursquare.com/venue/4fae5a19e4b0fa27b8591d30",
        "foursquare_id": "4fae5a19e4b0fa27b8591d30",
        "longitude": 2.169235,
        "latitude": 41.384493
      }
    },
    {
      "location": {
        "name": "La L",
        "foursquare": "http://foursquare.com/venue/520da92611d24806711b2dca",
        "foursquare_id": "520da92611d24806711b2dca",
        "longitude": 2.16958545987521,
        "latitude": 41.3758068785963
      }
    },
    {
      "location": {
        "name": "L ' Ou Com Balla",
        "foursquare": "http://foursquare.com/venue/4bae9243f964a5200cc23be3",
        "foursquare_id": "4bae9243f964a5200cc23be3",
        "longitude": 2.18153738469573,
        "latitude": 41.3841353314437
      }
    },
    {
      "location": {
        "name": "l' oreal",
        "foursquare": "http://foursquare.com/venue/4dd4dcd9d4c0e6b33e456835",
        "foursquare_id": "4dd4dcd9d4c0e6b33e456835",
        "longitude": 2.162478,
        "latitude": 41.394998
      }
    },
    {
      "location": {
        "name": "L & R Boulangerie",
        "foursquare": "http://foursquare.com/venue/5320adfe498ec10f38706d4a",
        "foursquare_id": "5320adfe498ec10f38706d4a",
        "longitude": 2.1608304977417,
        "latitude": 41.3767441601513
      }
    },
    {
      "location": {
        "name": "L Everest",
        "foursquare": "http://foursquare.com/venue/51a1227c498e5fd3ee439142",
        "foursquare_id": "51a1227c498e5fd3ee439142",
        "longitude": 2.16958545987521,
        "latitude": 41.3958379939025
      }
    },
    {
      "location": {
        "name": "Casa De L' Argent",
        "foursquare": "http://foursquare.com/venue/50c9c885e4b0f94e0bf04df8",
        "foursquare_id": "50c9c885e4b0f94e0bf04df8",
        "longitude": 2.18023,
        "latitude": 41.383643
      }
    },
    {
      "location": {
        "name": "L Óptica Universitaria",
        "foursquare": "http://foursquare.com/venue/4e7cb880d22d882fa2daf495",
        "foursquare_id": "4e7cb880d22d882fa2daf495",
        "longitude": 2.15778,
        "latitude": 41.39464
      }
    },
    {
      "location": {
        "name": "L' Explendid",
        "foursquare": "http://foursquare.com/venue/4c0793510ed3c9283fae797d",
        "foursquare_id": "4c0793510ed3c9283fae797d",
        "longitude": 2.148859,
        "latitude": 41.396493
      }
    },
    {
      "location": {
        "name": "HomeSweetHome L&J",
        "foursquare": "http://foursquare.com/venue/5107c0b0e4b09858346453f0",
        "foursquare_id": "5107c0b0e4b09858346453f0",
        "longitude": 2.15975947279409,
        "latitude": 41.3860075673581
      }
    },
    {
      "location": {
        "name": "papereria l escaire",
        "foursquare": "http://foursquare.com/venue/5057303ee4b01f3aa6bab995",
        "foursquare_id": "5057303ee4b01f3aa6bab995",
        "longitude": 2.17794739476558,
        "latitude": 41.394739307369
      }
    },
    {
      "location": {
        "name": "Horta de L' Eixample",
        "foursquare": "http://foursquare.com/venue/51471a56e4b0136aba423980",
        "foursquare_id": "51471a56e4b0136aba423980",
        "longitude": 2.177012,
        "latitude": 41.397161
      }
    },
    {
      "location": {
        "name": "L-OLLA",
        "foursquare": "http://foursquare.com/venue/505709aae4b04495be1d1ef4",
        "foursquare_id": "505709aae4b04495be1d1ef4",
        "longitude": 2.15183259816641,
        "latitude": 41.4069082698134
      }
    },
    {
      "location": {
        "name": "Viajes Unibras S .L",
        "foursquare": "http://foursquare.com/venue/52fe71de11d2eca3cb5a03e6",
        "foursquare_id": "52fe71de11d2eca3cb5a03e6",
        "longitude": 2.15856255706329,
        "latitude": 41.3745184539969
      }
    },
    {
      "location": {
        "name": "L' Adresse",
        "foursquare": "http://foursquare.com/venue/4eb297d093ad74b3b9264ee7",
        "foursquare_id": "4eb297d093ad74b3b9264ee7",
        "longitude": 2.15255687180427,
        "latitude": 41.3912850964738
      }
    },
    {
      "location": {
        "name": "L' Anglès",
        "foursquare": "http://foursquare.com/venue/4c7fe7d4d92ea093a0053372",
        "foursquare_id": "4c7fe7d4d92ea093a0053372",
        "longitude": 2.13625155134496,
        "latitude": 41.3745770473479
      }
    },
    {
      "location": {
        "name": "L' obrador",
        "foursquare": "http://foursquare.com/venue/517a9890e4b0fc74f576fd0c",
        "foursquare_id": "517a9890e4b0fc74f576fd0c",
        "longitude": 2.14228383008055,
        "latitude": 41.4112809184399
      }
    },
    {
      "location": {
        "name": "La Tagliatella L´Hospitalet",
        "foursquare": "http://foursquare.com/venue/5269664711d221d6a5949827",
        "foursquare_id": "5269664711d221d6a5949827",
        "longitude": 2.1413773,
        "latitude": 41.369026
      }
    },
    {
      "location": {
        "name": "L' Atelier",
        "foursquare": "http://foursquare.com/venue/4d839e837e8ef04df65dfabd",
        "foursquare_id": "4d839e837e8ef04df65dfabd",
        "longitude": 2.12954890462092,
        "latitude": 41.3865431146059
      }
    },
    {
      "location": {
        "name": "L Appart Des Filles :)",
        "foursquare": "http://foursquare.com/venue/51c322e2498e3c1e4b7796f0",
        "foursquare_id": "51c322e2498e3c1e4b7796f0",
        "longitude": 2.14646566256161,
        "latitude": 41.4066325640015
      }
    },
    {
      "location": {
        "name": "Escenari L´Illa",
        "foursquare": "http://foursquare.com/venue/51c2c511abd8f8cf948feb93",
        "foursquare_id": "51c2c511abd8f8cf948feb93",
        "longitude": 2.13591814041138,
        "latitude": 41.3905898864589
      }
    },
    {
      "location": {
        "name": "L' Appartamento",
        "foursquare": "http://foursquare.com/venue/4e5e6cdca809fd79d2988d85",
        "foursquare_id": "4e5e6cdca809fd79d2988d85",
        "longitude": 2.136935,
        "latitude": 41.401828
      }
    },
    {
      "location": {
        "name": "Fioremotor S. L.",
        "foursquare": "http://foursquare.com/venue/4f4fb36ce4b0f7bd4e03271e",
        "foursquare_id": "4f4fb36ce4b0f7bd4e03271e",
        "longitude": 2.20281,
        "latitude": 41.39716
      }
    },
    {
      "location": {
        "name": "Casa D&L",
        "foursquare": "http://foursquare.com/venue/4d28cb8debacb1f7f1b3f44f",
        "foursquare_id": "4d28cb8debacb1f7f1b3f44f",
        "longitude": 2.1302943927414,
        "latitude": 41.3865549944478
      }
    },
    {
      "location": {
        "name": "L' Hospitalet De Llobregat",
        "foursquare": "http://foursquare.com/venue/503545b7e4b04e46b7cf5c40",
        "foursquare_id": "503545b7e4b04e46b7cf5c40",
        "longitude": 2.11066174698701,
        "latitude": 41.3768990602059
      }
    },
    {
      "location": {
        "name": "TriemSpain, S. L.",
        "foursquare": "http://foursquare.com/venue/4f4b35f2e4b05ebee26090ce",
        "foursquare_id": "4f4b35f2e4b05ebee26090ce",
        "longitude": 2.150127,
        "latitude": 41.39646
      }
    },
    {
      "location": {
        "name": "Academia L G",
        "foursquare": "http://foursquare.com/venue/4eb4136af790d87d021f4a3d",
        "foursquare_id": "4eb4136af790d87d021f4a3d",
        "longitude": 2.18235813113368,
        "latitude": 41.4189734386235
      }
    },
    {
      "location": {
        "name": "Carrer De l' Art",
        "foursquare": "http://foursquare.com/venue/50e48eb5e4b0f216969c8297",
        "foursquare_id": "50e48eb5e4b0f216969c8297",
        "longitude": 2.175257,
        "latitude": 41.419181
      }
    },
    {
      "location": {
        "name": "Granja M. Viader",
        "foursquare": "http://foursquare.com/venue/4b67fec4f964a5205d632be3",
        "foursquare_id": "4b67fec4f964a5205d632be3",
        "longitude": 2.17064351271506,
        "latitude": 41.3831535177012
      }
    },
    {
      "location": {
        "name": "M-Store",
        "foursquare": "http://foursquare.com/venue/50d45dec067de4cf5b9e6d89",
        "foursquare_id": "50d45dec067de4cf5b9e6d89",
        "longitude": 2.163405418396,
        "latitude": 41.3814294975437
      }
    },
    {
      "location": {
        "name": "Fills De M. Sala",
        "foursquare": "http://foursquare.com/venue/4dd37b36d22dc96be807938e",
        "foursquare_id": "4dd37b36d22dc96be807938e",
        "longitude": 2.175649,
        "latitude": 41.38209
      }
    },