{
  "locations": [
    {
      "location": {
        "foursquare": "http://foursquare.com/venue/4fab92ade4b066f573d4bf89",
        "foursquare_id": "4fab92ade4b066f573d4bf89",
        "id": 1,
        "latitude": 41.4068213080674,
        "longitude": 2.15666290852663,
        "name": "betahaus I Barcelona"
      }
    },
    {
      "location": {
        "foursquare": "http://foursquare.com/venue/514cd6eee4b0157f0869cf86",
        "foursquare_id": "514cd6eee4b0157f0869cf86",
        "id": 2,
        "latitude": 41.3984347239749,
        "longitude": 2.17929600715873,
        "name": "betahaus Summit Homebase"
      }
    },
    {
      "location": {
        "foursquare": "http://foursquare.com/venue/4b9cfc34f964a5209c8636e3",
        "foursquare_id": "4b9cfc34f964a5209c8636e3",
        "id": 3,
        "latitude": 41.37579,
        "longitude": 2.177769,
        "name": "Monument a Cristòfol Colom"
      }
    },
    {
      "location": {
        "foursquare": "http://foursquare.com/venue/4fbbb9a6e4b0756c0d3edd94",
        "foursquare_id": "4fbbb9a6e4b0756c0d3edd94",
        "id": 4,
        "latitude": 41.3962055907302,
        "longitude": 2.14993563213611,
        "name": "A"
      }
    },
    {
      "location": {
        "foursquare": "http://foursquare.com/venue/4fa99889e4b096d4708c90cf",
        "foursquare_id": "4fa99889e4b096d4708c90cf",
        "id": 5,
        "latitude": 41.3926981457355,
        "longitude": 2.13460216631081,
        "name": "A"
      }
    },
    {
      "location": {
        "foursquare": "http://foursquare.com/venue/4d483cc9c3e5a35d62ce9b4f",
        "foursquare_id": "4d483cc9c3e5a35d62ce9b4f",
        "id": 6,
        "latitude": 41.432527,
        "longitude": 2.21097,
        "name": "A"
      }
    },
    {
      "location": {
        "foursquare": "http://foursquare.com/venue/4e53ef40e4cd13d104849867",
        "foursquare_id": "4e53ef40e4cd13d104849867",
        "id": 7,
        "latitude": 41.3758068785963,
        "longitude": 2.16958545987521,
        "name": "Carme A"
      }
    },
    {
      "location": {
        "foursquare": "http://foursquare.com/venue/4ddfdf17ae60c015c0a14381",
        "foursquare_id": "4ddfdf17ae60c015c0a14381",
        "id": 8,
        "latitude": 41.3873548729665,
        "longitude": 2.17953597800888,
        "name": "A Colors"
      }
    },
    {
      "location": {
        "foursquare": "http://foursquare.com/venue/50071406e4b0d3e9fb1efd5c",
        "foursquare_id": "50071406e4b0d3e9fb1efd5c",
        "id": 9,
        "latitude": 41.384637,
        "longitude": 2.162041,
        "name": "A. Pons"
      }
    },
    {
      "location": {
        "foursquare": "http://foursquare.com/venue/4ee260148b816da57cd1e77c",
        "foursquare_id": "4ee260148b816da57cd1e77c",
        "id": 10,
        "latitude": 41.4056657215008,
        "longitude": 2.17941359271554,
        "name": "A Casa!"
      }
    },
    {
      "location": {
        "foursquare": "http://foursquare.com/venue/4e85843d4901d14ec66465b2",
        "foursquare_id": "4e85843d4901d14ec66465b2",
        "id": 11,
        "latitude": 41.3995282163915,
        "longitude": 2.17394019055346,
        "name": "Comunica +A"
      }
    },
    {
      "location": {
        "foursquare": "http://foursquare.com/venue/4fab975fe4b0d7ccc928e28f",
        "foursquare_id": "4fab975fe4b0d7ccc928e28f",
        "id": 12,
        "latitude": 41.37543580486,
        "longitude": 2.18924387065038,
        "name": "a casa"
      }
    },
    {
      "location": {
        "foursquare": "http://foursquare.com/venue/4fabb725e4b0d7ccc9348678",
        "foursquare_id": "4fabb725e4b0d7ccc9348678",
        "id": 13,
        "latitude": 41.37543580486,
        "longitude": 2.18924387065038,
        "name": "..a casa"
      }
    },
    {
      "location": {
        "foursquare": "http://foursquare.com/venue/4fd76f7be4b0130777b5f37f",
        "foursquare_id": "4fd76f7be4b0130777b5f37f",
        "id": 14,
        "latitude": 41.3757362365723,
        "longitude": 2.16063761711121,
        "name": "A Fond"
      }
    },
    {
      "location": {
        "foursquare": "http://foursquare.com/venue/4b785ea0f964a52000c92ee3",
        "foursquare_id": "4b785ea0f964a52000c92ee3",
        "id": 15,
        "latitude": 41.3750426247458,
        "longitude": 2.13889836560312,
        "name": "A poc a poc"
      }
    },
    {
      "location": {
        "foursquare": "http://foursquare.com/venue/4f2ffed56b740061f43e15b1",
        "foursquare_id": "4f2ffed56b740061f43e15b1",
        "id": 16,
        "latitude": 41.4026702886151,
        "longitude": 2.16505765914917,
        "name": "A Priori"
      }
    },
    {
      "location": {
        "foursquare": "http://foursquare.com/venue/4f0b0ea2e4b00a27549a2493",
        "foursquare_id": "4f0b0ea2e4b00a27549a2493",
        "id": 17,
        "latitude": 41.3862139644156,
        "longitude": 2.14826416206154,
        "name": "A SAC!!!"
      }
    },
    {
      "location": {
        "foursquare": "http://foursquare.com/venue/50042d438055e753b49d2b16",
        "foursquare_id": "50042d438055e753b49d2b16",
        "id": 18,
        "latitude": 41.4017689637069,
        "longitude": 2.15436100959778,
        "name": "Hipnosis A&A"
      }
    },
    {
      "location": {
        "foursquare": "http://foursquare.com/venue/4bc5ed60b387d13accf5c0e8",
        "foursquare_id": "4bc5ed60b387d13accf5c0e8",
        "id": 19,
        "latitude": 41.3962055907302,
        "longitude": 2.14993563213611,
        "name": "A casa!"
      }
    },
    {
      "location": {
        "foursquare": "http://foursquare.com/venue/4f3e22bee4b0abb6d6420e66",
        "foursquare_id": "4f3e22bee4b0abb6d6420e66",
        "id": 20,
        "latitude": 41.3856496218353,
        "longitude": 2.14498854882125,
        "name": "A' cas!!"
      }
    },
    {
      "location": {
        "foursquare": "http://foursquare.com/venue/4f130cfde4b072565e4ee343",
        "foursquare_id": "4f130cfde4b072565e4ee343",
        "id": 21,
        "latitude": 41.4062331172094,
        "longitude": 2.16027998516509,
        "name": "a bao a qu"
      }
    },
    {
      "location": {
        "foursquare": "http://foursquare.com/venue/4eb441f6dab4fe511122b299",
        "foursquare_id": "4eb441f6dab4fe511122b299",
        "id": 22,
        "latitude": 41.3952800163872,
        "longitude": 2.19907629301424,
        "name": "A Caseta"
      }
    },
    {
      "location": {
        "foursquare": "http://foursquare.com/venue/4ed09c094690a03b5d9f157e",
        "foursquare_id": "4ed09c094690a03b5d9f157e",
        "id": 23,
        "latitude": 41.3962055907302,
        "longitude": 2.14993563213611,
        "name": "A Caseta"
      }
    },
    {
      "location": {
        "foursquare": "http://foursquare.com/venue/4c236abb9085d13a8fd187cc",
        "foursquare_id": "4c236abb9085d13a8fd187cc",
        "id": 24,
        "latitude": 41.4058508439967,
        "longitude": 2.16958545987521,
        "name": "A casa"
      }
    },
    {
      "location": {
        "foursquare": "http://foursquare.com/venue/4ec450f69a522f580b57981b",
        "foursquare_id": "4ec450f69a522f580b57981b",
        "id": 25,
        "latitude": 41.3594983873218,
        "longitude": 2.16867546585866,
        "name": "Roza A"
      }
    },
    {
      "location": {
        "foursquare": "http://foursquare.com/venue/4f884f30e4b005979d2ed4ce",
        "foursquare_id": "4f884f30e4b005979d2ed4ce",
        "id": 26,
        "latitude": 41.3995122484101,
        "longitude": 2.14604842096636,
        "name": "A Ver..."
      }
    },
    {
      "location": {
        "foursquare": "http://foursquare.com/venue/4ea485bd6c25b62f3e4427dd",
        "foursquare_id": "4ea485bd6c25b62f3e4427dd",
        "id": 27,
        "latitude": 41.4058508439967,
        "longitude": 2.16958545987521,
        "name": "A casetaaaaa"
      }
    },
    {
      "location": {
        "foursquare": "http://foursquare.com/venue/4c221cfa99282d7f318e66b0",
        "foursquare_id": "4c221cfa99282d7f318e66b0",
        "id": 28,
        "latitude": 41.388896,
        "longitude": 2.14044570922852,
        "name": "A laxiña"
      }
    },
    {
      "location": {
        "foursquare": "http://foursquare.com/venue/531ee6c6498e9fa0667b0020",
        "foursquare_id": "531ee6c6498e9fa0667b0020",
        "id": 29,
        "latitude": 41.3785313905228,
        "longitude": 2.13387966156006,
        "name": "Doble A+A"
      }
    },
    {
      "location": {
        "foursquare": "http://foursquare.com/venue/4f623edbe4b0deb11c0882b9",
        "foursquare_id": "4f623edbe4b0deb11c0882b9",
        "id": 30,
        "latitude": 41.4156767579157,
        "longitude": 2.17941359271554,
        "name": "A Caseta"
      }
    },
    {
      "location": {
        "foursquare": "http://foursquare.com/venue/524a8ee9498ebdced769a96c",
        "foursquare_id": "524a8ee9498ebdced769a96c",
        "id": 31,
        "latitude": 41.4054891282849,
        "longitude": 2.20224300061155,
        "name": "A Lareira"
      }
    },
    {
      "location": {
        "foursquare": "http://foursquare.com/venue/4f34697de4b04e887cfe8485",
        "foursquare_id": "4f34697de4b04e887cfe8485",
        "id": 32,
        "latitude": 41.3759910991277,
        "longitude": 2.15975947279409,
        "name": "A Casa"
      }
    },
    {
      "location": {
        "foursquare": "http://foursquare.com/venue/4cfcc6007945224b7ed68ce7",
        "foursquare_id": "4cfcc6007945224b7ed68ce7",
        "id": 33,
        "latitude": 41.3960969096026,
        "longitude": 2.17234220738912,
        "name": ",+b"
      }
    },
    {
      "location": {
        "foursquare": "http://foursquare.com/venue/4fea505fe4b00153403b25f8",
        "foursquare_id": "4fea505fe4b00153403b25f8",
        "id": 34,
        "latitude": 41.386286,
        "longitude": 2.175589,
        "name": "B&B Born"
      }
    },
    {
      "location": {
        "foursquare": "http://foursquare.com/venue/4fea10dfe4b0e37edcbdaf10",
        "foursquare_id": "4fea10dfe4b0e37edcbdaf10",
        "id": 35,
        "latitude": 41.3867797851562,
        "longitude": 2.1752724647522,
        "name": "B & B Good Time"
      }
    },
    {
      "location": {
        "foursquare": "http://foursquare.com/venue/4af58a49f964a520baf921e3",
        "foursquare_id": "4af58a49f964a520baf921e3",
        "id": 36,
        "latitude": 41.3814226739672,
        "longitude": 2.18123980780968,
        "name": "Bo de B"
      }
    },
    {
      "location": {
        "foursquare": "http://foursquare.com/venue/52801182498e3c826dfb1021",
        "foursquare_id": "52801182498e3c826dfb1021",
        "id": 37,
        "latitude": 41.389122218764,
        "longitude": 2.17735708959279,
        "name": "Raquel's B&B"
      }
    },
    {
      "location": {
        "foursquare": "http://foursquare.com/venue/4f301dc1e4b040ea01ff2a76",
        "foursquare_id": "4f301dc1e4b040ea01ff2a76",
        "id": 38,
        "latitude": 41.3851056095256,
        "longitude": 2.16946310162757,
        "name": "B&O"
      }
    },
    {
      "location": {
        "foursquare": "http://foursquare.com/venue/518cef5b454a4b187a3a3ec6",
        "foursquare_id": "518cef5b454a4b187a3a3ec6",
        "id": 39,
        "latitude": 41.3848024094741,
        "longitude": 2.16896295547485,
        "name": "B-Reel"
      }
    },
    {
      "location": {
        "foursquare": "http://foursquare.com/venue/4f81ecb7e4b0cd6f6326091e",
        "foursquare_id": "4f81ecb7e4b0cd6f6326091e",
        "id": 40,
        "latitude": 41.387644,
        "longitude": 2.167459,
        "name": "BCN AM B&B"
      }
    },
    {
      "location": {
        "foursquare": "http://foursquare.com/venue/4e214ce6483b041af1eb8efd",
        "foursquare_id": "4e214ce6483b041af1eb8efd",
        "id": 41,
        "latitude": 41.384488,
        "longitude": 2.183385,
        "name": "Blau B&b"
      }
    },
    {
      "location": {
        "foursquare": "http://foursquare.com/venue/4b2929f8f964a520159a24e3",
        "foursquare_id": "4b2929f8f964a520159a24e3",
        "id": 42,
        "latitude": 41.3763393065769,
        "longitude": 2.15071023691094,
        "name": "B-Hotel"
      }
    },
    {
      "location": {
        "foursquare": "http://foursquare.com/venue/4dd0f870887785124433613a",
        "foursquare_id": "4dd0f870887785124433613a",
        "id": 43,
        "latitude": 41.3829384703576,
        "longitude": 2.16836908972736,
        "name": "B Huno"
      }
    },
    {
      "location": {
        "foursquare": "http://foursquare.com/venue/52f6be7f498ecccfd2afab2b",
        "foursquare_id": "52f6be7f498ecccfd2afab2b",
        "id": 44,
        "latitude": 41.384694,
        "longitude": 2.180098,
        "name": "Petit Born B&B"
      }
    },
    {
      "location": {
        "foursquare": "http://foursquare.com/venue/4fe1d12ee4b0b93c909cdc19",
        "foursquare_id": "4fe1d12ee4b0b93c909cdc19",
        "id": 45,
        "latitude": 41.384529,
        "longitude": 2.182579,
        "name": "B Ba"
      }
    },
    {
      "location": {
        "foursquare": "http://foursquare.com/venue/4e0cc176d4c07c82a2df7a07",
        "foursquare_id": "4e0cc176d4c07c82a2df7a07",
        "id": 46,
        "latitude": 41.4034683761913,
        "longitude": 2.15575628638181,
        "name": "espai [b]"
      }
    },
    {
      "location": {
        "foursquare": "http://foursquare.com/venue/4e03405418389833c5960392",
        "foursquare_id": "4e03405418389833c5960392",
        "id": 47,
        "latitude": 41.3787372945568,
        "longitude": 2.17721791307769,
        "name": "B&B de magouilleurs"
      }
    },
    {
      "location": {
        "foursquare": "http://foursquare.com/venue/4eef1a5d8231688f2032e9eb",
        "foursquare_id": "4eef1a5d8231688f2032e9eb",
        "id": 48,
        "latitude": 41.3843518154334,
        "longitude": 2.16787007558768,
        "name": "Xocolat House B&B"
      }
    },
    {
      "location": {
        "foursquare": "http://foursquare.com/venue/4f8471f2e4b010a79c4da300",
        "foursquare_id": "4f8471f2e4b010a79c4da300",
        "id": 49,
        "latitude": 41.3956528795786,
        "longitude": 2.17941359271554,
        "name": "Bailen B"
      }
    },
    {
      "location": {
        "foursquare": "http://foursquare.com/venue/4f7ff44fe4b0d9965946d73e",
        "foursquare_id": "4f7ff44fe4b0d9965946d73e",
        "id": 50,
        "latitude": 41.3840251994667,
        "longitude": 2.16257798735948,
        "name": "Barcelona Apartments B&B"
      }
    },
    {
      "location": {
        "foursquare": "http://foursquare.com/venue/5171a48ce4b075f815db1cfe",
        "foursquare_id": "5171a48ce4b075f815db1cfe",
        "id": 51,
        "latitude": 41.3791402712263,
        "longitude": 2.17917122282194,
        "name": "B Lab"
      }
    },
    {
      "location": {
        "foursquare": "http://foursquare.com/venue/5320c72f498e8faffbcd7bda",
        "foursquare_id": "5320c72f498e8faffbcd7bda",
        "id": 52,
        "latitude": 41.3951661088285,
        "longitude": 2.16774052474467,
        "name": "B&B Quadrat D'Or"
      }
    },
    {
      "location": {
        "foursquare": "http://foursquare.com/venue/51d5a879498e6c2cbcdee1e2",
        "foursquare_id": "51d5a879498e6c2cbcdee1e2",
        "id": 53,
        "latitude": 41.3876460142689,
        "longitude": 2.16744783717625,
        "name": "Xocolate B&B"
      }
    },
    {
      "location": {
        "foursquare": "http://foursquare.com/venue/5309e62f498ec46ce016898f",
        "foursquare_id": "5309e62f498ec46ce016898f",
        "id": 54,
        "latitude": 41.39511,
        "longitude": 2.168952,
        "name": "b network"
      }
    },
    {
      "location": {
        "foursquare": "http://foursquare.com/venue/4d4fb7de747f6dcb1d42add4",
        "foursquare_id": "4d4fb7de747f6dcb1d42add4",
        "id": 55,
        "latitude": 41.389596,
        "longitude": 2.169626,
        "name": "Plan B!"
      }
    },
    {
      "location": {
        "foursquare": "http://foursquare.com/venue/4d677d50fd1b8cfa58191ef0",
        "foursquare_id": "4d677d50fd1b8cfa58191ef0",
        "id": 56,
        "latitude": 41.3974652500045,
        "longitude": 2.16764456139772,
        "name": "Barcelonabb B&B"
      }
    },
    {
      "location": {
        "foursquare": "http://foursquare.com/venue/5298c803498e78bd52bd5281",
        "foursquare_id": "5298c803498e78bd52bd5281",
        "id": 57,
        "latitude": 41.3956528795786,
        "longitude": 2.17941359271554,
        "name": "B & E's"
      }
    },
    {
      "location": {
        "foursquare": "http://foursquare.com/venue/507ffacde4b0894ae8063f9f",
        "foursquare_id": "507ffacde4b0894ae8063f9f",
        "id": 58,
        "latitude": 41.3759910991277,
        "longitude": 2.15975947279409,
        "name": "B&B Rafa & Tibi"
      }
    },
    {
      "location": {
        "foursquare": "http://foursquare.com/venue/512914c4e4b0c51f957d97b2",
        "foursquare_id": "512914c4e4b0c51f957d97b2",
        "id": 59,
        "latitude": 41.3812317342276,
        "longitude": 2.15872086473061,
        "name": "B&B Eduardo"
      }
    },
    {
      "location": {
        "foursquare": "http://foursquare.com/venue/4d5acaa4e092a35dfbc40e0c",
        "foursquare_id": "4d5acaa4e092a35dfbc40e0c",
        "id": 60,
        "latitude": 41.37902,
        "longitude": 2.175792,
        "name": "Las Ramblas Rooms B&B"
      }
    },
    {
      "location": {
        "foursquare": "http://foursquare.com/venue/509e729fe4b0872dbd3911b9",
        "foursquare_id": "509e729fe4b0872dbd3911b9",
        "id": 61,
        "latitude": 41.3759910991277,
        "longitude": 2.15975947279409,
        "name": "B&B by R&T"
      }
    },
    {
      "location": {
        "foursquare": "http://foursquare.com/venue/4f892735e4b039b144d2a448",
        "foursquare_id": "4f892735e4b039b144d2a448",
        "id": 62,
        "latitude": 41.3980331420898,
        "longitude": 2.17018294334412,
        "name": "Barcelona B&B (Chimney room)"
      }
    },
    {
      "location": {
        "foursquare": "http://foursquare.com/venue/4c0d25cb2466a593611f7721",
        "foursquare_id": "4c0d25cb2466a593611f7721",
        "id": 63,
        "latitude": 41.3851485456688,
        "longitude": 2.16941356658936,
        "name": "C&A"
      }
    },
    {
      "location": {
        "foursquare": "http://foursquare.com/venue/528b774b11d285bfd1202e3a",
        "foursquare_id": "528b774b11d285bfd1202e3a",
        "id": 64,
        "latitude": 41.383325,
        "longitude": 2.175224,
        "name": "C 2"
      }
    },
    {
      "location": {
        "foursquare": "http://foursquare.com/venue/4ef7262d754a3a35a124ac2a",
        "foursquare_id": "4ef7262d754a3a35a124ac2a",
        "id": 65,
        "latitude": 41.3851032663295,
        "longitude": 2.16533727943897,
        "name": "C/ dels tallers"
      }
    },
    {
      "location": {
        "foursquare": "http://foursquare.com/venue/50a7da8ee4b041c06566325c",
        "foursquare_id": "50a7da8ee4b041c06566325c",
        "id": 66,
        "latitude": 41.3756217806886,
        "longitude": 2.17941359271554,
        "name": "C/ample"
      }
    },
    {
      "location": {
        "foursquare": "http://foursquare.com/venue/5228846011d24e01fac7622c",
        "foursquare_id": "5228846011d24e01fac7622c",
        "id": 67,
        "latitude": 41.3860325467803,
        "longitude": 2.18171017217683,
        "name": "c/ Corretger"
      }
    },
    {
      "location": {
        "foursquare": "http://foursquare.com/venue/52f692a7498e04873ed442d4",
        "foursquare_id": "52f692a7498e04873ed442d4",
        "id": 68,
        "latitude": 41.3797221901778,
        "longitude": 2.17712192952478,
        "name": "c/obradors"
      }
    },
    {
      "location": {
        "foursquare": "http://foursquare.com/venue/4c00d8009cf52d7f5b6614e7",
        "foursquare_id": "4c00d8009cf52d7f5b6614e7",
        "id": 69,
        "latitude": 41.4049801444573,
        "longitude": 2.19068163254692,
        "name": "C&A"
      }
    },
    {
      "location": {
        "foursquare": "http://foursquare.com/venue/52bd81c111d20c3e281acc46",
        "foursquare_id": "52bd81c111d20c3e281acc46",
        "id": 70,
        "latitude": 41.3940353393555,
        "longitude": 2.16968274116516,
        "name": "C de C"
      }
    },
    {
      "location": {
        "foursquare": "http://foursquare.com/venue/513c6c27e4b0b36e09a4bf8d",
        "foursquare_id": "513c6c27e4b0b36e09a4bf8d",
        "id": 71,
        "latitude": 41.3764724731445,
        "longitude": 2.16500353813171,
        "name": "C/ Campsagrat"
      }
    },
    {
      "location": {
        "foursquare": "http://foursquare.com/venue/4fa3b142e4b094b944fdc417",
        "foursquare_id": "4fa3b142e4b094b944fdc417",
        "id": 72,
        "latitude": 41.3959513137607,
        "longitude": 2.16289463152051,
        "name": "C Valenti"
      }
    },
    {
      "location": {
        "foursquare": "http://foursquare.com/venue/4b852e43f964a520a84f31e3",
        "foursquare_id": "4b852e43f964a520a84f31e3",
        "id": 73,
        "latitude": 41.3773173309277,
        "longitude": 2.16962144765842,
        "name": "c/ Riereta"
      }
    },
    {
      "location": {
        "foursquare": "http://foursquare.com/venue/4e3ffa13ae60454236856179",
        "foursquare_id": "4e3ffa13ae60454236856179",
        "id": 74,
        "latitude": 41.3960222307715,
        "longitude": 2.15975947279409,
        "name": "c/ Mallorca"
      }
    },
    {
      "location": {
        "foursquare": "http://foursquare.com/venue/4cf95d68d7206ea89e5b3269",
        "foursquare_id": "4cf95d68d7206ea89e5b3269",
        "id": 75,
        "latitude": 41.3958379939025,
        "longitude": 2.16958545987521,
        "name": "C. Mallorca"
      }
    },
    {
      "location": {
        "foursquare": "http://foursquare.com/venue/4ec2fad20e016c9af4baa98c",
        "foursquare_id": "4ec2fad20e016c9af4baa98c",
        "id": 76,
        "latitude": 41.3738451863774,
        "longitude": 2.16342237674212,
        "name": "C/ Elkano"
      }
    },
    {
      "location": {
        "foursquare": "http://foursquare.com/venue/53245a3b498e9e831c5b0b38",
        "foursquare_id": "53245a3b498e9e831c5b0b38",
        "id": 77,
        "latitude": 41.3998525051321,
        "longitude": 2.16448748140963,
        "name": "C. Girona, 166"
      }
    },
    {
      "location": {
        "foursquare": "http://foursquare.com/venue/4f2b8dbde4b00637a55c7f53",
        "foursquare_id": "4f2b8dbde4b00637a55c7f53",
        "id": 78,
        "latitude": 41.3758068785963,
        "longitude": 2.16958545987521,
        "name": "C/ piquer, 32"
      }
    },
    {
      "location": {
        "foursquare": "http://foursquare.com/venue/4fec2576067d0cd5a030d17f",
        "foursquare_id": "4fec2576067d0cd5a030d17f",
        "id": 79,
        "latitude": 41.3845931169276,
        "longitude": 2.15227961540222,
        "name": "C-MET"
      }
    },
    {
      "location": {
        "foursquare": "http://foursquare.com/venue/4eb6a644cc2143e8287cf20b",
        "foursquare_id": "4eb6a644cc2143e8287cf20b",
        "id": 80,
        "latitude": 41.3861909191992,
        "longitude": 2.14993563213611,
        "name": "C/ provença"
      }
    },
    {
      "location": {
        "foursquare": "http://foursquare.com/venue/4f2b2002e4b05a27b90f13fb",
        "foursquare_id": "4f2b2002e4b05a27b90f13fb",
        "id": 81,
        "latitude": 41.3758068785963,
        "longitude": 2.16958545987521,
        "name": "C/piquer"
      }
    },
    {
      "location": {
        "foursquare": "http://foursquare.com/venue/4df73ef8887712d325cf68b5",
        "foursquare_id": "4df73ef8887712d325cf68b5",
        "id": 82,
        "latitude": 41.3790487867465,
        "longitude": 2.18790696125594,
        "name": "Appunl-C"
      }
    },
    {
      "location": {
        "foursquare": "http://foursquare.com/venue/533d6f6a498e996d217273eb",
        "foursquare_id": "533d6f6a498e996d217273eb",
        "id": 83,
        "latitude": 41.400983,
        "longitude": 2.158101,
        "name": "C & G AUDIO"
      }
    },
    {
      "location": {
        "foursquare": "http://foursquare.com/venue/4f2b91ade4b05d297be3a975",
        "foursquare_id": "4f2b91ade4b05d297be3a975",
        "id": 84,
        "latitude": 41.3906121890261,
        "longitude": 2.18481086018144,
        "name": "C/Napols"
      }
    },
    {
      "location": {
        "foursquare": "http://foursquare.com/venue/4fe093cee4b0ac20bee46a40",
        "foursquare_id": "4fe093cee4b0ac20bee46a40",
        "id": 85,
        "latitude": 41.3863572128217,
        "longitude": 2.14138229336056,
        "name": "C. breda"
      }
    },
    {
      "location": {
        "foursquare": "http://foursquare.com/venue/4d852b245e70224bf5261d09",
        "foursquare_id": "4d852b245e70224bf5261d09",
        "id": 86,
        "latitude": 41.366156161985,
        "longitude": 2.14993563213611,
        "name": "C/ Chopin"
      }
    },
    {
      "location": {
        "foursquare": "http://foursquare.com/venue/4f37942fe4b0948a82372521",
        "foursquare_id": "4f37942fe4b0948a82372521",
        "id": 87,
        "latitude": 41.3857829300645,
        "longitude": 2.14449938549585,
        "name": "C/ Rocafort 242"
      }
    },
    {
      "location": {
        "foursquare": "http://foursquare.com/venue/4f117cfb754a6fab61af2eac",
        "foursquare_id": "4f117cfb754a6fab61af2eac",
        "id": 88,
        "latitude": 41.3778551469687,
        "longitude": 2.15722560882568,
        "name": "Perruqueria C. Rosichs"
      }
    },
    {
      "location": {
        "foursquare": "http://foursquare.com/venue/50256a32e4b012d82f770e2b",
        "foursquare_id": "50256a32e4b012d82f770e2b",
        "id": 89,
        "latitude": 41.3696712350382,
        "longitude": 2.14413970997845,
        "name": "C/ indebil, 14"
      }
    },
    {
      "location": {
        "foursquare": "http://foursquare.com/venue/5281f0d011d2203eeca83892",
        "foursquare_id": "5281f0d011d2203eeca83892",
        "id": 90,
        "latitude": 41.4142379760742,
        "longitude": 2.18711757659912,
        "name": "C-TR3S"
      }
    },
    {
      "location": {
        "foursquare": "http://foursquare.com/venue/51fe2751498e72ffcbe5a9bf",
        "foursquare_id": "51fe2751498e72ffcbe5a9bf",
        "id": 91,
        "latitude": 41.4156767579157,
        "longitude": 2.17941359271554,
        "name": "C/ TORRE VÉLEZ"
      }
    },
    {
      "location": {
        "foursquare": "http://foursquare.com/venue/4ef6488a61af4546fd6d872d",
        "foursquare_id": "4ef6488a61af4546fd6d872d",
        "id": 92,
        "latitude": 41.376538501911,
        "longitude": 2.1302943927414,
        "name": "C/ Jaquard # 34"
      }
    },
    {
      "location": {
        "foursquare": "http://foursquare.com/venue/51fbfb34498ec3c6449966fb",
        "foursquare_id": "51fbfb34498ec3c6449966fb",
        "id": 93,
        "latitude": 41.3855115797167,
        "longitude": 2.17225103288311,
        "name": "cafe d' annunzio"
      }
    },
    {
      "location": {
        "foursquare": "http://foursquare.com/venue/4e62bde4b993678bb69cdbd8",
        "foursquare_id": "4e62bde4b993678bb69cdbd8",
        "id": 94,
        "latitude": 41.3838987089909,
        "longitude": 2.17160321934219,
        "name": "D Boy"
      }
    },
    {
      "location": {
        "foursquare": "http://foursquare.com/venue/5048ab03e4b07b8a49275579",
        "foursquare_id": "5048ab03e4b07b8a49275579",
        "id": 95,
        "latitude": 41.3861131408238,
        "longitude": 2.17016846550611,
        "name": "Mora d Ebre"
      }
    },
    {
      "location": {
        "foursquare": "http://foursquare.com/venue/4daee465a86e29d01a4d0a3f",
        "foursquare_id": "4daee465a86e29d01a4d0a3f",
        "id": 96,
        "latitude": 41.3849591797104,
        "longitude": 2.16576372111256,
        "name": "D&D LowRider"
      }
    },
    {
      "location": {
        "foursquare": "http://foursquare.com/venue/5007eac9e4b0dde02515f825",
        "foursquare_id": "5007eac9e4b0dde02515f825",
        "id": 97,
        "latitude": 41.3904504246604,
        "longitude": 2.17227982481242,
        "name": "D&N"
      }
    },
    {
      "location": {
        "foursquare": "http://foursquare.com/venue/51cbff91498eae9075a97778",
        "foursquare_id": "51cbff91498eae9075a97778",
        "id": 98,
        "latitude": 41.3885943963495,
        "longitude": 2.1820029524772,
        "name": "D-retail"
      }
    },
    {
      "location": {
        "foursquare": "http://foursquare.com/venue/52f009d2498e21cb8fa094cb",
        "foursquare_id": "52f009d2498e21cb8fa094cb",
        "id": 99,
        "latitude": 41.3858233386459,
        "longitude": 2.16958545987521,
        "name": "Jardin d' Astrid"
      }
    },
    {
      "location": {
        "foursquare": "http://foursquare.com/venue/4d289a09ebacb1f75bb3f24f",
        "foursquare_id": "4d289a09ebacb1f75bb3f24f",
        "id": 100,
        "latitude": 41.38852,
        "longitude": 2.159011,
        "name": "+D Conti Stocks"
      }
    },
    {
      "location": {
        "foursquare": "http://foursquare.com/venue/4faa6a94e4b05573314ba90b",
        "foursquare_id": "4faa6a94e4b05573314ba90b",
        "id": 101,
        "latitude": 41.3918624273845,
        "longitude": 2.16164725833678,
        "name": "d lunic"
      }
    },
    {
      "location": {
        "foursquare": "http://foursquare.com/venue/50422984e4b05e5c0fa3ba68",
        "foursquare_id": "50422984e4b05e5c0fa3ba68",
        "id": 102,
        "latitude": 41.401783,
        "longitude": 2.166334,
        "name": "D Bebes"
      }
    },
    {
      "location": {
        "foursquare": "http://foursquare.com/venue/4e0cc9af45dd7a490b0a5d3f",
        "foursquare_id": "4e0cc9af45dd7a490b0a5d3f",
        "id": 103,
        "latitude": 41.3787729043739,
        "longitude": 2.15907096862793,
        "name": "D&D Centres Dentals"
      }
    },
    {
      "location": {
        "foursquare": "http://foursquare.com/venue/4e2af2c3483bb05f0598bed1",
        "foursquare_id": "4e2af2c3483bb05f0598bed1",
        "id": 104,
        "latitude": 41.3769735850191,
        "longitude": 2.15358814248742,
        "name": "D•Tres"
      }
    },
    {
      "location": {
        "foursquare": "http://foursquare.com/venue/4eac0fb0e3000d1f062170d0",
        "foursquare_id": "4eac0fb0e3000d1f062170d0",
        "id": 105,
        "latitude": 41.3944866959242,
        "longitude": 2.16127785061004,
        "name": "D&G"
      }
    },
    {
      "location": {
        "foursquare": "http://foursquare.com/venue/4c1ba43963750f473131b567",
        "foursquare_id": "4c1ba43963750f473131b567",
        "id": 106,
        "latitude": 41.4018060933478,
        "longitude": 2.15578506775622,
        "name": "D-lirio"
      }
    },
    {
      "location": {
        "foursquare": "http://foursquare.com/venue/4fabdc8fe4b09a6d7b0047e0",
        "foursquare_id": "4fabdc8fe4b09a6d7b0047e0",
        "id": 107,
        "latitude": 41.3922020845537,
        "longitude": 2.17194871873715,
        "name": "Master D"
      }
    },
    {
      "location": {
        "foursquare": "http://foursquare.com/venue/4dcd1d50d4c065592f5cac0b",
        "foursquare_id": "4dcd1d50d4c065592f5cac0b",
        "id": 108,
        "latitude": 41.3749377405117,
        "longitude": 2.15579466155179,
        "name": "+D Conti"
      }
    },
    {
      "location": {
        "foursquare": "http://foursquare.com/venue/508ed0f8e4b07bfac7653b23",
        "foursquare_id": "508ed0f8e4b07bfac7653b23",
        "id": 109,
        "latitude": 41.4032881992765,
        "longitude": 2.15754556352146,
        "name": "D-lirio"
      }
    },
    {
      "location": {
        "foursquare": "http://foursquare.com/venue/4bc9c703b6c49c745ceb8e91",
        "foursquare_id": "4bc9c703b6c49c745ceb8e91",
        "id": 110,
        "latitude": 41.3782668113708,
        "longitude": 2.15210795402527,
        "name": "d Taronja"
      }
    },
    {
      "location": {
        "foursquare": "http://foursquare.com/venue/5040f6e7e4b00690ba09b900",
        "foursquare_id": "5040f6e7e4b00690ba09b900",
        "id": 111,
        "latitude": 41.3852449345427,
        "longitude": 2.14222628464282,
        "name": "D ilcaffé"
      }
    },
    {
      "location": {
        "foursquare": "http://foursquare.com/venue/4ef1cd9346901f707ed62c68",
        "foursquare_id": "4ef1cd9346901f707ed62c68",
        "id": 112,
        "latitude": 41.3929974341833,
        "longitude": 2.14580383286731,
        "name": "D. 477"
      }
    },
    {
      "location": {
        "foursquare": "http://foursquare.com/venue/5312675b11d27df1bd213a7b",
        "foursquare_id": "5312675b11d27df1bd213a7b",
        "id": 113,
        "latitude": 41.376565,
        "longitude": 2.167,
        "name": "caffè d les delices"
      }
    },
    {
      "location": {
        "foursquare": "http://foursquare.com/venue/4e2e8891c65b80dfd8374376",
        "foursquare_id": "4e2e8891c65b80dfd8374376",
        "id": 114,
        "latitude": 41.404117,
        "longitude": 2.178703,
        "name": "D luz"
      }
    },
    {
      "location": {
        "foursquare": "http://foursquare.com/venue/4d7eabf4870037045e107699",
        "foursquare_id": "4d7eabf4870037045e107699",
        "id": 115,
        "latitude": 41.3860075673581,
        "longitude": 2.15975947279409,
        "name": "Pisos D. Ramòn"
      }
    },
    {
      "location": {
        "foursquare": "http://foursquare.com/venue/50a76a77e4b0740a17aacd35",
        "foursquare_id": "50a76a77e4b0740a17aacd35",
        "id": 116,
        "latitude": 41.3863495902916,
        "longitude": 2.15781420108953,
        "name": "Font d' Hermes"
      }
    },
    {
      "location": {
        "foursquare": "http://foursquare.com/venue/4e293805b0fba988bb73dbc8",
        "foursquare_id": "4e293805b0fba988bb73dbc8",
        "id": 117,
        "latitude": 41.384877,
        "longitude": 2.151392,
        "name": "D+D Dept. Técnico"
      }
    },
    {
      "location": {
        "foursquare": "http://foursquare.com/venue/51110a9ee4b0f14524e10455",
        "foursquare_id": "51110a9ee4b0f14524e10455",
        "id": 118,
        "latitude": 41.3956,
        "longitude": 2.16442,
        "name": "Sol d invierno"
      }
    },
    {
      "location": {
        "foursquare": "http://foursquare.com/venue/5062d695e4b086f23ba333b9",
        "foursquare_id": "5062d695e4b086f23ba333b9",
        "id": 119,
        "latitude": 41.3848125577554,
        "longitude": 2.15317563137491,
        "name": "Master D"
      }
    },
    {
      "location": {
        "foursquare": "http://foursquare.com/venue/531b9393498ec8b07cce2c9b",
        "foursquare_id": "531b9393498ec8b07cce2c9b",
        "id": 120,
        "latitude": 41.3960222307715,
        "longitude": 2.15975947279409,
        "name": "Apartamento de D"
      }
    },
    {
      "location": {
        "foursquare": "http://foursquare.com/venue/4bfe622e2b83b71355e6a998",
        "foursquare_id": "4bfe622e2b83b71355e6a998",
        "id": 121,
        "latitude": 41.399893,
        "longitude": 2.15413,
        "name": "D' estètica & Gràcia"
      }
    },
    {
      "location": {
        "foursquare": "http://foursquare.com/venue/4e42735045dd4a1e043a017b",
        "foursquare_id": "4e42735045dd4a1e043a017b",
        "id": 122,
        "latitude": 41.3965096445449,
        "longitude": 2.14637875556946,
        "name": "d-uñas"
      }
    },
    {
      "location": {
        "foursquare": "http://foursquare.com/venue/4cb07307cbab236afd43a073",
        "foursquare_id": "4cb07307cbab236afd43a073",
        "id": 123,
        "latitude": 41.386420276955,
        "longitude": 2.17407935693746,
        "name": "Buoni e cattivi"
      }
    },
    {
      "location": {
        "foursquare": "http://foursquare.com/venue/4db027d14df03036e8b5f5d7",
        "foursquare_id": "4db027d14df03036e8b5f5d7",
        "id": 124,
        "latitude": 41.384326,
        "longitude": 2.175796,
        "name": "Buoni e Cattivi"
      }
    },
    {
      "location": {
        "foursquare": "http://foursquare.com/venue/50521017e4b07c192802b3ed",
        "foursquare_id": "50521017e4b07c192802b3ed",
        "id": 125,
        "latitude": 41.3872143943073,
        "longitude": 2.17033161246713,
        "name": "Rambla E"
      }
    },
    {
      "location": {
        "foursquare": "http://foursquare.com/venue/501ed3eee4b0af03d006eeac",
        "foursquare_id": "501ed3eee4b0af03d006eeac",
        "id": 126,
        "latitude": 41.3858233386459,
        "longitude": 2.16958545987521,
        "name": "E headquarter"
      }
    },
    {
      "location": {
        "foursquare": "http://foursquare.com/venue/515ed7dbe4b04a2b2df7f474",
        "foursquare_id": "515ed7dbe4b04a2b2df7f474",
        "id": 127,
        "latitude": 41.387751,
        "longitude": 2.167949,
        "name": "E&TB"
      }
    },
    {
      "location": {
        "foursquare": "http://foursquare.com/venue/4ee9efdebe7b7263da1aaee6",
        "foursquare_id": "4ee9efdebe7b7263da1aaee6",
        "id": 128,
        "latitude": 41.3863994762905,
        "longitude": 2.16533670455029,
        "name": "E. García"
      }
    },
    {
      "location": {
        "foursquare": "http://foursquare.com/venue/4fcc9a3fe4b05b50352f197d",
        "foursquare_id": "4fcc9a3fe4b05b50352f197d",
        "id": 129,
        "latitude": 41.380164,
        "longitude": 2.170357,
        "name": "Esto é Er Bronx"
      }
    },
    {
      "location": {
        "foursquare": "http://foursquare.com/venue/525e78e7498e7caa0e8db8fc",
        "foursquare_id": "525e78e7498e7caa0e8db8fc",
        "id": 130,
        "latitude": 41.3882538947366,
        "longitude": 2.16787007558768,
        "name": "Carboni e Pasta"
      }
    },
    {
      "location": {
        "foursquare": "http://foursquare.com/venue/517eae76e4b01798e46ccc0f",
        "foursquare_id": "517eae76e4b01798e46ccc0f",
        "id": 131,
        "latitude": 41.385393940914,
        "longitude": 2.17873927971047,
        "name": "e-urek"
      }
    },
    {
      "location": {
        "foursquare": "http://foursquare.com/venue/50b0b4afe4b04cb0a21450dc",
        "foursquare_id": "50b0b4afe4b04cb0a21450dc",
        "id": 132,
        "latitude": 41.3858233386459,
        "longitude": 2.16958545987521,
        "name": "Casa Mel e Isa"
      }
    },
    {
      "location": {
        "foursquare": "http://foursquare.com/venue/4de105d922713271e2c1f740",
        "foursquare_id": "4de105d922713271e2c1f740",
        "id": 133,
        "latitude": 41.38617,
        "longitude": 2.181294,
        "name": "Da Ciro E Rosetta"
      }
    },
    {
      "location": {
        "foursquare": "http://foursquare.com/venue/503f314cebca66a84ef51985",
        "foursquare_id": "503f314cebca66a84ef51985",
        "id": 134,
        "latitude": 41.3981554910153,
        "longitude": 2.16640949249268,
        "name": "e-growing"
      }
    },
    {
      "location": {
        "foursquare": "http://foursquare.com/venue/5330c617498ee5c4e714cac0",
        "foursquare_id": "5330c617498ee5c4e714cac0",
        "id": 135,
        "latitude": 41.3900429560144,
        "longitude": 2.15722415996847,
        "name": "E-nosis Barcelona"
      }
    },
    {
      "location": {
        "foursquare": "http://foursquare.com/venue/4b6fe945f964a520c9ff2ce3",
        "foursquare_id": "4b6fe945f964a520c9ff2ce3",
        "id": 136,
        "latitude": 41.37987,
        "longitude": 2.153279,
        "name": "e@t22"
      }
    },
    {
      "location": {
        "foursquare": "http://foursquare.com/venue/4e4c19ed483b734b80749d7b",
        "foursquare_id": "4e4c19ed483b734b80749d7b",
        "id": 137,
        "latitude": 41.3758068785963,
        "longitude": 2.16958545987521,
        "name": "Casa Giampaolo E Ines"
      }
    },
    {
      "location": {
        "foursquare": "http://foursquare.com/venue/5320646d498e9733c8dc52f4",
        "foursquare_id": "5320646d498e9733c8dc52f4",
        "id": 138,
        "latitude": 41.3762799958999,
        "longitude": 2.14886367789293,
        "name": "e-showbcn"
      }
    },
    {
      "location": {
        "foursquare": "http://foursquare.com/venue/5256f138498e297611f0a7cb",
        "foursquare_id": "5256f138498e297611f0a7cb",
        "id": 139,
        "latitude": 41.389552,
        "longitude": 2.16133,
        "name": "Bombardo e Hijos"
      }
    },
    {
      "location": {
        "foursquare": "http://foursquare.com/venue/4eadc059754a69d67754d179",
        "foursquare_id": "4eadc059754a69d67754d179",
        "id": 140,
        "latitude": 41.3939703717872,
        "longitude": 2.15091705322266,
        "name": "E-interactive"
      }
    },
    {
      "location": {
        "foursquare": "http://foursquare.com/venue/4cfe0c69ed7060fc028ab95a",
        "foursquare_id": "4cfe0c69ed7060fc028ab95a",
        "id": 141,
        "latitude": 41.3894312660534,
        "longitude": 2.15881680904265,
        "name": "La Vita è Bella"
      }
    },
    {
      "location": {
        "foursquare": "http://foursquare.com/venue/5158ae02e4b0a9d4d12d5e68",
        "foursquare_id": "5158ae02e4b0a9d4d12d5e68",
        "id": 142,
        "latitude": 41.3956528795786,
        "longitude": 2.17941359271554,
        "name": "Casa Giorgio e Valeria"
      }
    },
    {
      "location": {
        "foursquare": "http://foursquare.com/venue/4e5e2bcf1f6e3022a720c39d",
        "foursquare_id": "4e5e2bcf1f6e3022a720c39d",
        "id": 143,
        "latitude": 41.3794860839844,
        "longitude": 2.16639280319214,
        "name": "Agliolio e Peperoncino"
      }
    },
    {
      "location": {
        "foursquare": "http://foursquare.com/venue/501060bce4b0c939222ff4a2",
        "foursquare_id": "501060bce4b0c939222ff4a2",
        "id": 144,
        "latitude": 41.3879928430427,
        "longitude": 2.15672047245465,
        "name": "Lia Berti e Grek"
      }
    },
    {
      "location": {
        "foursquare": "http://foursquare.com/venue/4fa63559e4b0b487cea03e2b",
        "foursquare_id": "4fa63559e4b0b487cea03e2b",
        "id": 145,
        "latitude": 41.4060350889985,
        "longitude": 2.15975947279409,
        "name": "Casa E"
      }
    },
    {
      "location": {
        "foursquare": "http://foursquare.com/venue/52c3288a498eeb85d5d4ae13",
        "foursquare_id": "52c3288a498eeb85d5d4ae13",
        "id": 146,
        "latitude": 41.373222,
        "longitude": 2.166057,
        "name": "Chez Anits e Daniel"
      }
    },
    {
      "location": {
        "foursquare": "http://foursquare.com/venue/4f345913e4b0cb01ba3c13e1",
        "foursquare_id": "4f345913e4b0cb01ba3c13e1",
        "id": 147,
        "latitude": 41.3860075673581,
        "longitude": 2.15975947279409,
        "name": "Casa Aline e Rafa"
      }
    },
    {
      "location": {
        "foursquare": "http://foursquare.com/venue/52c73cb711d239e1255bd67f",
        "foursquare_id": "52c73cb711d239e1255bd67f",
        "id": 148,
        "latitude": 41.389046,
        "longitude": 2.151417,
        "name": "Chez Cássio e Adri"
      }
    },
    {
      "location": {
        "foursquare": "http://foursquare.com/venue/4fbc0392e4b0d84e4ff08123",
        "foursquare_id": "4fbc0392e4b0d84e4ff08123",
        "id": 149,
        "latitude": 41.3860626383346,
        "longitude": 2.15248972011518,
        "name": "Trattoria Anima e Cuore"
      }
    },
    {
      "location": {
        "foursquare": "http://foursquare.com/venue/531e24d8498e04e506247cbd",
        "foursquare_id": "531e24d8498e04e506247cbd",
        "id": 150,
        "latitude": 41.410315,
        "longitude": 2.186375,
        "name": "Terraza Ni e Julin"
      }
    },
    {
      "location": {
        "foursquare": "http://foursquare.com/venue/4ec8a64ee5fa232a769b78af",
        "foursquare_id": "4ec8a64ee5fa232a769b78af",
        "id": 151,
        "latitude": 41.3621769521604,
        "longitude": 2.18066385813088,
        "name": "Moll Adossat E"
      }
    },
    {
      "location": {
        "foursquare": "http://foursquare.com/venue/51ec12fd498e8999452035ff",
        "foursquare_id": "51ec12fd498e8999452035ff",
        "id": 152,
        "latitude": 41.4060350889985,
        "longitude": 2.15975947279409,
        "name": "casa E"
      }
    },
    {
      "location": {
        "foursquare": "http://foursquare.com/venue/50842314e4b0921f5d294058",
        "foursquare_id": "50842314e4b0921f5d294058",
        "id": 153,
        "latitude": 41.3841593,
        "longitude": 2.174187,
        "name": "Keep calm and f*** off"
      }
    },
    {
      "location": {
        "foursquare": "http://foursquare.com/venue/51791630e4b0ee9dbc83dd42",
        "foursquare_id": "51791630e4b0ee9dbc83dd42",
        "id": 154,
        "latitude": 41.382896,
        "longitude": 2.172584,
        "name": "Escola Adultes F. Layret"
      }
    },
    {
      "location": {
        "foursquare": "http://foursquare.com/venue/4e2ffef8e4cdb5a70d6d9239",
        "foursquare_id": "4e2ffef8e4cdb5a70d6d9239",
        "id": 155,
        "latitude": 41.3855648455455,
        "longitude": 2.18281410783833,
        "name": "S&F"
      }
    },
    {
      "location": {
        "foursquare": "http://foursquare.com/venue/4f466443e4b00ed04a3e8ad2",
        "foursquare_id": "4f466443e4b00ed04a3e8ad2",
        "id": 156,
        "latitude": 41.3910245301348,
        "longitude": 2.15349197387695,
        "name": "F&T"
      }
    },
    {
      "location": {
        "foursquare": "http://foursquare.com/venue/520526cd11d21ee8fd9fbe81",
        "foursquare_id": "520526cd11d21ee8fd9fbe81",
        "id": 157,
        "latitude": 41.372768421802,
        "longitude": 2.17416093743153,
        "name": "farmacia F. Guilera Mas"
      }
    },
    {
      "location": {
        "foursquare": "http://foursquare.com/venue/516d7999e4b06c51db636890",
        "foursquare_id": "516d7999e4b06c51db636890",
        "id": 158,
        "latitude": 41.374966,
        "longitude": 2.159432,
        "name": "Farmàcia F. Iglesias"
      }
    },
    {
      "location": {
        "foursquare": "http://foursquare.com/venue/4e94ea01b8f74cf190badc8e",
        "foursquare_id": "4e94ea01b8f74cf190badc8e",
        "id": 159,
        "latitude": 41.393295,
        "longitude": 2.156407,
        "name": "F**** me I'm retarded"
      }
    },
    {
      "location": {
        "foursquare": "http://foursquare.com/venue/4e7c96af1f6e3466f0c4e510",
        "foursquare_id": "4e7c96af1f6e3466f0c4e510",
        "id": 160,
        "latitude": 41.3715858459473,
        "longitude": 2.16048121452332,
        "name": "The f*ing Terraza"
      }
    },
    {
      "location": {
        "foursquare": "http://foursquare.com/venue/4d853b5ef9f3a1cd28c2c764",
        "foursquare_id": "4d853b5ef9f3a1cd28c2c764",
        "id": 161,
        "latitude": 41.382979,
        "longitude": 2.154027,
        "name": "Asociación F"
      }
    },
    {
      "location": {
        "foursquare": "http://foursquare.com/venue/507d88e4e4b043916f817c2d",
        "foursquare_id": "507d88e4e4b043916f817c2d",
        "id": 162,
        "latitude": 41.3886451721191,
        "longitude": 2.15552997589111,
        "name": "A&F Asesoría Fiscal, Laboral y Contable"
      }
    },
    {
      "location": {
        "foursquare": "http://foursquare.com/venue/5161e65fe4b046bf1c07ba2a",
        "foursquare_id": "5161e65fe4b046bf1c07ba2a",
        "id": 163,
        "latitude": 41.3761744428274,
        "longitude": 2.14993563213611,
        "name": "F N A C House's"
      }
    },
    {
      "location": {
        "foursquare": "http://foursquare.com/venue/4cbb66cc0180721ec35b9f61",
        "foursquare_id": "4cbb66cc0180721ec35b9f61",
        "id": 164,
        "latitude": 41.4056657215008,
        "longitude": 2.17941359271554,
        "name": "F*ck Vision Studio"
      }
    },
    {
      "location": {
        "foursquare": "http://foursquare.com/venue/52ab641c11d2d465f9ed42a8",
        "foursquare_id": "52ab641c11d2d465f9ed42a8",
        "id": 165,
        "latitude": 41.387044,
        "longitude": 2.16015,
        "name": "S&F Catsitters House of BCN"
      }
    },
    {
      "location": {
        "foursquare": "http://foursquare.com/venue/509807dae4b0cb1b3372239a",
        "foursquare_id": "509807dae4b0cb1b3372239a",
        "id": 166,
        "latitude": 41.395907,
        "longitude": 2.15831,
        "name": "Dr. F. Saval"
      }
    },
    {
      "location": {
        "foursquare": "http://foursquare.com/venue/507a7beee4b0d3b80942314a",
        "foursquare_id": "507a7beee4b0d3b80942314a",
        "id": 167,
        "latitude": 41.3968469566028,
        "longitude": 2.18873262413448,
        "name": "Cooking Lounge F"
      }
    },
    {
      "location": {
        "foursquare": "http://foursquare.com/venue/51d72ae9498eeedbb586645e",
        "foursquare_id": "51d72ae9498eeedbb586645e",
        "id": 168,
        "latitude": 41.3988849220775,
        "longitude": 2.20574848580303,
        "name": "Temporary (?) Jungle F. Poo"
      }
    },
    {
      "location": {
        "foursquare": "http://foursquare.com/venue/51a4646c498e9de82e4dab3b",
        "foursquare_id": "51a4646c498e9de82e4dab3b",
        "id": 169,
        "latitude": 41.405664,
        "longitude": 2.176116,
        "name": "Bugaderia Sagrada F"
      }
    },
    {
      "location": {
        "foursquare": "http://foursquare.com/venue/4d7ff2579d78a35d2e51390f",
        "foursquare_id": "4d7ff2579d78a35d2e51390f",
        "id": 170,
        "latitude": 41.3860075673581,
        "longitude": 2.15975947279409,
        "name": "My F***ing Lovely Loft"
      }
    },
    {
      "location": {
        "foursquare": "http://foursquare.com/venue/4d3b60371fc36dcb580271f5",
        "foursquare_id": "4d3b60371fc36dcb580271f5",
        "id": 171,
        "latitude": 41.406586,
        "longitude": 2.213937,
        "name": "F Pujades"
      }
    },
    {
      "location": {
        "foursquare": "http://foursquare.com/venue/4df9ec4e18a8ab1870bc66e7",
        "foursquare_id": "4df9ec4e18a8ab1870bc66e7",
        "id": 172,
        "latitude": 41.393805,
        "longitude": 2.150403,
        "name": "Sudleasing España E F C"
      }
    },
    {
      "location": {
        "foursquare": "http://foursquare.com/venue/4cbd4a24a33bb1f7956b9efd",
        "foursquare_id": "4cbd4a24a33bb1f7956b9efd",
        "id": 173,
        "latitude": 41.3951217078789,
        "longitude": 2.12649996316809,
        "name": "Farmacia F Massana"
      }
    },
    {
      "location": {
        "foursquare": "http://foursquare.com/venue/4ee4871793adf8e1a7b6b0ab",
        "foursquare_id": "4ee4871793adf8e1a7b6b0ab",
        "id": 174,
        "latitude": 41.3918127119391,
        "longitude": 2.12449621197876,
        "name": "Club F"
      }
    },
    {
      "location": {
        "foursquare": "http://foursquare.com/venue/4ca4781a7f84224b7647cd58",
        "foursquare_id": "4ca4781a7f84224b7647cd58",
        "id": 175,
        "latitude": 41.3838434276761,
        "longitude": 2.15875924243086,
        "name": "Exclusif"
      }
    },
    {
      "location": {
        "foursquare": "http://foursquare.com/venue/4dd12e75fa7664b7c6e8fcd7",
        "foursquare_id": "4dd12e75fa7664b7c6e8fcd7",
        "id": 176,
        "latitude": 41.401013242287,
        "longitude": 2.1307474446273,
        "name": "F. Diestro Peluquería Masculina"
      }
    },
    {
      "location": {
        "foursquare": "http://foursquare.com/venue/516303c9e4b0e85bc2c73035",
        "foursquare_id": "516303c9e4b0e85bc2c73035",
        "id": 177,
        "latitude": 41.360984,
        "longitude": 2.138383,
        "name": "Zona F"
      }
    },
    {
      "location": {
        "foursquare": "http://foursquare.com/venue/4f3e75c0e4b0a4b082de7cfa",
        "foursquare_id": "4f3e75c0e4b0a4b082de7cfa",
        "id": 178,
        "latitude": 41.3666973424269,
        "longitude": 2.13963202108661,
        "name": "Zona F Autoescola"
      }
    },
    {
      "location": {
        "foursquare": "http://foursquare.com/venue/4d516f3de02754812097aab6",
        "foursquare_id": "4d516f3de02754812097aab6",
        "id": 179,
        "latitude": 41.375598,
        "longitude": 2.135923,
        "name": "Zona F"
      }
    },
    {
      "location": {
        "foursquare": "http://foursquare.com/venue/4e804eace5fa79f0e3c72739",
        "foursquare_id": "4e804eace5fa79f0e3c72739",
        "id": 180,
        "latitude": 41.3808946449953,
        "longitude": 2.13264599751314,
        "name": "Autoescola Zona F"
      }
    },
    {
      "location": {
        "foursquare": "http://foursquare.com/venue/4d848ed20b8edcb329888adc",
        "foursquare_id": "4d848ed20b8edcb329888adc",
        "id": 181,
        "latitude": 41.3933747752253,
        "longitude": 2.15284824371338,
        "name": "Laboratorio Medico / Analisis Clinicos"
      }
    },
    {
      "location": {
        "foursquare": "http://foursquare.com/venue/516802e4e4b0f182266c51c9",
        "foursquare_id": "516802e4e4b0f182266c51c9",
        "id": 182,
        "latitude": 41.392087,
        "longitude": 2.124529,
        "name": "Recinto Privado F"
      }
    },
    {
      "location": {
        "foursquare": "http://foursquare.com/venue/4b3b4eb3f964a520547225e3",
        "foursquare_id": "4b3b4eb3f964a520547225e3",
        "id": 183,
        "latitude": 41.3878853716272,
        "longitude": 2.17094779014587,
        "name": "El Corte Inglés"
      }
    },
    {
      "location": {
        "foursquare": "http://foursquare.com/venue/4f325ef2e4b03558770ebed0",
        "foursquare_id": "4f325ef2e4b03558770ebed0",
        "id": 184,
        "latitude": 41.391467,
        "longitude": 2.16186,
        "name": "G"
      }
    },
    {
      "location": {
        "foursquare": "http://foursquare.com/venue/4f3a70a5e4b0b5606e86e1a7",
        "foursquare_id": "4f3a70a5e4b0b5606e86e1a7",
        "id": 185,
        "latitude": 41.3860075673581,
        "longitude": 2.15975947279409,
        "name": "G!"
      }
    },
    {
      "location": {
        "foursquare": "http://foursquare.com/venue/522ad699498eb0c9aa1c0de9",
        "foursquare_id": "522ad699498eb0c9aa1c0de9",
        "id": 186,
        "latitude": 41.3872222900391,
        "longitude": 2.17461371421814,
        "name": "G and G rooms"
      }
    },
    {
      "location": {
        "foursquare": "http://foursquare.com/venue/4c335374ac0ab71317b81c1e",
        "foursquare_id": "4c335374ac0ab71317b81c1e",
        "id": 187,
        "latitude": 41.3814119632596,
        "longitude": 2.17623889043738,
        "name": "Salva G"
      }
    },
    {
      "location": {
        "foursquare": "http://foursquare.com/venue/4cd5acda94848cfa7f16e8b1",
        "foursquare_id": "4cd5acda94848cfa7f16e8b1",
        "id": 188,
        "latitude": 41.385411,
        "longitude": 2.183377,
        "name": "G-star"
      }
    },
    {
      "location": {
        "foursquare": "http://foursquare.com/venue/4c598a846407d13ae561b228",
        "foursquare_id": "4c598a846407d13ae561b228",
        "id": 189,
        "latitude": 41.394511,
        "longitude": 2.161223725,
        "name": "G-Star RAW"
      }
    },
    {
      "location": {
        "foursquare": "http://foursquare.com/venue/4cfc9625dccef04d852ac19c",
        "foursquare_id": "4cfc9625dccef04d852ac19c",
        "id": 190,
        "latitude": 41.3856382325181,
        "longitude": 2.17941359271554,
        "name": "Carlos G."
      }
    },
    {
      "location": {
        "foursquare": "http://foursquare.com/venue/51952d9f498e5625bfb7bb3e",
        "foursquare_id": "51952d9f498e5625bfb7bb3e",
        "id": 191,
        "latitude": 41.385712,
        "longitude": 2.184993,
        "name": "g-shock pop-up store"
      }
    },
    {
      "location": {
        "foursquare": "http://foursquare.com/venue/532701f5498eb79a55fd9ee3",
        "foursquare_id": "532701f5498eb79a55fd9ee3",
        "id": 192,
        "latitude": 41.389703,
        "longitude": 2.159795,
        "name": "Green G Golf Store"
      }
    },
    {
      "location": {
        "foursquare": "http://foursquare.com/venue/4d07b4b78620224be690b940",
        "foursquare_id": "4d07b4b78620224be690b940",
        "id": 193,
        "latitude": 41.383569,
        "longitude": 2.159409,
        "name": "GTA G Point"
      }
    },
    {
      "location": {
        "foursquare": "http://foursquare.com/venue/5018e1f5e4b0d57076725de9",
        "foursquare_id": "5018e1f5e4b0d57076725de9",
        "id": 194,
        "latitude": 41.3962055907302,
        "longitude": 2.14993563213611,
        "name": "G & G's House"
      }
    },
    {
      "location": {
        "foursquare": "http://foursquare.com/venue/4c28c4d93492a59380d6b728",
        "foursquare_id": "4c28c4d93492a59380d6b728",
        "id": 195,
        "latitude": 41.389954,
        "longitude": 2.135649,
        "name": "G-Star Raw"
      }
    },
    {
      "location": {
        "foursquare": "http://foursquare.com/venue/5149e151f31cc2a961ef3ddc",
        "foursquare_id": "5149e151f31cc2a961ef3ddc",
        "id": 196,
        "latitude": 41.3845045698782,
        "longitude": 2.1847665309906,
        "name": "G-Star Store Barcelona, Plaza Comercial "
      }
    },
    {
      "location": {
        "foursquare": "http://foursquare.com/venue/501a99d0e4b0265f38b7785f",
        "foursquare_id": "501a99d0e4b0265f38b7785f",
        "id": 197,
        "latitude": 41.3898086547852,
        "longitude": 2.15878558158875,
        "name": "G\tFour Apt BCN"
      }
    },
    {
      "location": {
        "foursquare": "http://foursquare.com/venue/5149e27df31cc2a961f14764",
        "foursquare_id": "5149e27df31cc2a961f14764",
        "id": 198,
        "latitude": 41.3943325562173,
        "longitude": 2.16095924377441,
        "name": "G-Star Store Barcelona, Provença"
      }
    },
    {
      "location": {
        "foursquare": "http://foursquare.com/venue/51dab8cb498e309c76446eee",
        "foursquare_id": "51dab8cb498e309c76446eee",
        "id": 199,
        "latitude": 41.394528,
        "longitude": 2.174608,
        "name": "P&G salon professional"
      }
    },
    {
      "location": {
        "foursquare": "http://foursquare.com/venue/503d0f75e4b02dbf2073b441",
        "foursquare_id": "503d0f75e4b02dbf2073b441",
        "id": 200,
        "latitude": 41.3980271785626,
        "longitude": 2.15748320145841,
        "name": "G&J Restaurante"
      }
    },
    {
      "location": {
        "foursquare": "http://foursquare.com/venue/4cf19eebc9af6dcbe6ee9a7f",
        "foursquare_id": "4cf19eebc9af6dcbe6ee9a7f",
        "id": 201,
        "latitude": 41.38521201,
        "longitude": 2.16139622,
        "name": "Kodigo G"
      }
    },
    {
      "location": {
        "foursquare": "http://foursquare.com/venue/5031ea49e4b0bf3e6b3f6f6e",
        "foursquare_id": "5031ea49e4b0bf3e6b3f6f6e",
        "id": 202,
        "latitude": 41.390072,
        "longitude": 2.140704,
        "name": "G & G Ingenieros"
      }
    },
    {
      "location": {
        "foursquare": "http://foursquare.com/venue/5082ffb0e4b0361f66ad2fe0",
        "foursquare_id": "5082ffb0e4b0361f66ad2fe0",
        "id": 203,
        "latitude": 41.404143,
        "longitude": 2.171449,
        "name": "G & J's Pommery Bar"
      }
    },
    {
      "location": {
        "foursquare": "http://foursquare.com/venue/4c4495c4da2176b0a2e8627a",
        "foursquare_id": "4c4495c4da2176b0a2e8627a",
        "id": 204,
        "latitude": 41.4009269512158,
        "longitude": 2.15941646563071,
        "name": "G de Joies"
      }
    },
    {
      "location": {
        "foursquare": "http://foursquare.com/venue/4ebb90c97ee5cb25a586b992",
        "foursquare_id": "4ebb90c97ee5cb25a586b992",
        "id": 205,
        "latitude": 41.396842956543,
        "longitude": 2.16412305831909,
        "name": "S•G•M www.sgm.cat"
      }
    },
    {
      "location": {
        "foursquare": "http://foursquare.com/venue/51adf89c498eafba20e69f74",
        "foursquare_id": "51adf89c498eafba20e69f74",
        "id": 206,
        "latitude": 41.3744716449869,
        "longitude": 2.16580210482229,
        "name": "Cia. Roberto G. Alonso"
      }
    },
    {
      "location": {
        "foursquare": "http://foursquare.com/venue/4d2432afdaa937040c15c381",
        "foursquare_id": "4d2432afdaa937040c15c381",
        "id": 207,
        "latitude": 41.3960222307715,
        "longitude": 2.15975947279409,
        "name": "R&G&G Home"
      }
    },
    {
      "location": {
        "foursquare": "http://foursquare.com/venue/4fd4c81fe4b0b3abb3e08f37",
        "foursquare_id": "4fd4c81fe4b0b3abb3e08f37",
        "id": 208,
        "latitude": 41.3861909191992,
        "longitude": 2.14993563213611,
        "name": "Casa Manu G."
      }
    },
    {
      "location": {
        "foursquare": "http://foursquare.com/venue/4de49278d4c07044059e6ef5",
        "foursquare_id": "4de49278d4c07044059e6ef5",
        "id": 209,
        "latitude": 41.3976211889227,
        "longitude": 2.18959190563365,
        "name": "G-Star España"
      }
    },
    {
      "location": {
        "foursquare": "http://foursquare.com/venue/5048ef12e4b0a0848378fb05",
        "foursquare_id": "5048ef12e4b0a0848378fb05",
        "id": 210,
        "latitude": 41.391731,
        "longitude": 2.156721,
        "name": "Hotel Grandos G-Bar"
      }
    },
    {
      "location": {
        "foursquare": "http://foursquare.com/venue/4e2aa3fdaeb745b1faba633e",
        "foursquare_id": "4e2aa3fdaeb745b1faba633e",
        "id": 211,
        "latitude": 41.3974472590118,
        "longitude": 2.17422008514404,
        "name": "Farmacia G. Torrents"
      }
    },
    {
      "location": {
        "foursquare": "http://foursquare.com/venue/4c5282649426c92857038175",
        "foursquare_id": "4c5282649426c92857038175",
        "id": 212,
        "latitude": 41.385102,
        "longitude": 2.173491,
        "name": "H&M Offices"
      }
    },
    {
      "location": {
        "foursquare": "http://foursquare.com/venue/5329c42511d2a657f648aacb",
        "foursquare_id": "5329c42511d2a657f648aacb",
        "id": 213,
        "latitude": 41.3852339,
        "longitude": 2.1736047,
        "name": "H&M"
      }
    },
    {
      "location": {
        "foursquare": "http://foursquare.com/venue/4bead7c94f5576b0ee33b396",
        "foursquare_id": "4bead7c94f5576b0ee33b396",
        "id": 214,
        "latitude": 41.385503323513,
        "longitude": 2.17306681134459,
        "name": "H&M"
      }
    },
    {
      "location": {
        "foursquare": "http://foursquare.com/venue/4bead6da4f5576b0d533b396",
        "foursquare_id": "4bead6da4f5576b0d533b396",
        "id": 215,
        "latitude": 41.3836087862237,
        "longitude": 2.17281727753991,
        "name": "H&M"
      }
    },
    {
      "location": {
        "foursquare": "http://foursquare.com/venue/4bead80a4f5576b0f633b396",
        "foursquare_id": "4bead80a4f5576b0f633b396",
        "id": 216,
        "latitude": 41.3852077813589,
        "longitude": 2.17012048121836,
        "name": "H&M"
      }
    },
    {
      "location": {
        "foursquare": "http://foursquare.com/venue/4b9fc625f964a520653d37e3",
        "foursquare_id": "4b9fc625f964a520653d37e3",
        "id": 217,
        "latitude": 41.3886124375994,
        "longitude": 2.16889210087044,
        "name": "H&M"
      }
    },
    {
      "location": {
        "foursquare": "http://foursquare.com/venue/4bf911255efe2d7f99a96b34",
        "foursquare_id": "4bf911255efe2d7f99a96b34",
        "id": 218,
        "latitude": 41.3752935979897,
        "longitude": 2.18265571540726,
        "name": "H&M"
      }
    },
    {
      "location": {
        "foursquare": "http://foursquare.com/venue/4bb31803715eef3b7aee85bb",
        "foursquare_id": "4bb31803715eef3b7aee85bb",
        "id": 219,
        "latitude": 41.389357660618,
        "longitude": 2.13269394180759,
        "name": "H&M"
      }
    },
    {
      "location": {
        "foursquare": "http://foursquare.com/venue/4bc81c0392b376b0f4e8503a",
        "foursquare_id": "4bc81c0392b376b0f4e8503a",
        "id": 220,
        "latitude": 41.3833226611816,
        "longitude": 2.17524549216297,
        "name": "Hotel Neri"
      }
    },
    {
      "location": {
        "foursquare": "http://foursquare.com/venue/4adcda4cf964a520c33f21e3",
        "foursquare_id": "4adcda4cf964a520c33f21e3",
        "id": 221,
        "latitude": 41.3833306658684,
        "longitude": 2.17379622578133,
        "name": "H10 Racó del Pi"
      }
    },
    {
      "location": {
        "foursquare": "http://foursquare.com/venue/4c4195b9d7fad13a89bb07da",
        "foursquare_id": "4c4195b9d7fad13a89bb07da",
        "id": 222,
        "latitude": 41.4047867434959,
        "longitude": 2.19052791595459,
        "name": "H&M"
      }
    },
    {
      "location": {
        "foursquare": "http://foursquare.com/venue/51af9391498e8ab45b50d5e1",
        "foursquare_id": "51af9391498e8ab45b50d5e1",
        "id": 223,
        "latitude": 41.3843116760254,
        "longitude": 2.17965769767761,
        "name": "Hotel H 10"
      }
    },
    {
      "location": {
        "foursquare": "http://foursquare.com/venue/4b545c6cf964a520a5b827e3",
        "foursquare_id": "4b545c6cf964a520a5b827e3",
        "id": 224,
        "latitude": 41.3866051631379,
        "longitude": 2.17516390970369,
        "name": "H3"
      }
    },
    {
      "location": {
        "foursquare": "http://foursquare.com/venue/4e21cb6f18a88345f04f9044",
        "foursquare_id": "4e21cb6f18a88345f04f9044",
        "id": 225,
        "latitude": 41.3865442261086,
        "longitude": 2.18056786723371,
        "name": "Oscar H Grand tailoring"
      }
    },
    {
      "location": {
        "foursquare": "http://foursquare.com/venue/4f4927fe754a1c43d6d7345b",
        "foursquare_id": "4f4927fe754a1c43d6d7345b",
        "id": 226,
        "latitude": 41.381954765616,
        "longitude": 2.16417789459229,
        "name": "H La Paloma"
      }
    },
    {
      "location": {
        "foursquare": "http://foursquare.com/venue/52373e7211d239c3d1779e00",
        "foursquare_id": "52373e7211d239c3d1779e00",
        "id": 227,
        "latitude": 41.3858233386459,
        "longitude": 2.16958545987521,
        "name": "Casa H&E"
      }
    },
    {
      "location": {
        "foursquare": "http://foursquare.com/venue/523b069f11d2e01d2e7c8141",
        "foursquare_id": "523b069f11d2e01d2e7c8141",
        "id": 228,
        "latitude": 41.396956,
        "longitude": 2.160503,
        "name": "H+K Strategies"
      }
    },
    {
      "location": {
        "foursquare": "http://foursquare.com/venue/4cb2dfe81168a093b2f93d23",
        "foursquare_id": "4cb2dfe81168a093b2f93d23",
        "id": 229,
        "latitude": 41.4097919252236,
        "longitude": 2.21604108810425,
        "name": "H&M"
      }
    },
    {
      "location": {
        "foursquare": "http://foursquare.com/venue/504e5b04e4b095e4c205fc15",
        "foursquare_id": "504e5b04e4b095e4c205fc15",
        "id": 230,
        "latitude": 41.3771462459,
        "longitude": 2.16480893687118,
        "name": "Alimentació Super H."
      }
    },
    {
      "location": {
        "foursquare": "http://foursquare.com/venue/4cb5e3389c7ba35d2ec18d06",
        "foursquare_id": "4cb5e3389c7ba35d2ec18d06",
        "id": 231,
        "latitude": 41.382741572877,
        "longitude": 2.16637306637088,
        "name": "L'Horiginal"
      }
    },
    {
      "location": {
        "foursquare": "http://foursquare.com/venue/506b19e1e4b0af5c12352b8b",
        "foursquare_id": "506b19e1e4b0af5c12352b8b",
        "id": 232,
        "latitude": 41.39513,
        "longitude": 2.1768,
        "name": "Parada bus H 12"
      }
    },
    {
      "location": {
        "foursquare": "http://foursquare.com/venue/4c542fbe72cf0f4729801cd4",
        "foursquare_id": "4c542fbe72cf0f4729801cd4",
        "id": 233,
        "latitude": 41.3583984726,
        "longitude": 2.12891129438377,
        "name": "H&M"
      }
    },
    {
      "location": {
        "foursquare": "http://foursquare.com/venue/5069898be4b007c9389cc281",
        "foursquare_id": "5069898be4b007c9389cc281",
        "id": 234,
        "latitude": 41.4004243165749,
        "longitude": 2.19762385934746,
        "name": "H₂O"
      }
    },
    {
      "location": {
        "foursquare": "http://foursquare.com/venue/532dd7cc498e2c3dfa5203e6",
        "foursquare_id": "532dd7cc498e2c3dfa5203e6",
        "id": 235,
        "latitude": 41.4008724178458,
        "longitude": 2.16511120305715,
        "name": "bus H 8"
      }
    },
    {
      "location": {
        "foursquare": "http://foursquare.com/venue/4d5df2b3d7206ea83d6ed7f1",
        "foursquare_id": "4d5df2b3d7206ea83d6ed7f1",
        "id": 236,
        "latitude": 41.3812117370098,
        "longitude": 2.1639597236927,
        "name": "Hotel Ronda"
      }
    },
    {
      "location": {
        "foursquare": "http://foursquare.com/venue/4cd1ab682fd9b60ce14588eb",
        "foursquare_id": "4cd1ab682fd9b60ce14588eb",
        "id": 237,
        "latitude": 41.3841318333953,
        "longitude": 2.17888805964782,
        "name": "Tienda Movistar"
      }
    },
    {
      "location": {
        "foursquare": "http://foursquare.com/venue/4ef4c720b8f77e0f9841f43e",
        "foursquare_id": "4ef4c720b8f77e0f9841f43e",
        "id": 238,
        "latitude": 41.3842389280066,
        "longitude": 2.16408669948578,
        "name": "Xarcuteria Germans Gracia"
      }
    },
    {
      "location": {
        "foursquare": "http://foursquare.com/venue/4e634c241838ad3d0f2b40b4",
        "foursquare_id": "4e634c241838ad3d0f2b40b4",
        "id": 239,
        "latitude": 41.407788,
        "longitude": 2.183612,
        "name": "A & H Basar"
      }
    },
    {
      "location": {
        "foursquare": "http://foursquare.com/venue/4e84619f49012a8363357cf6",
        "foursquare_id": "4e84619f49012a8363357cf6",
        "id": 240,
        "latitude": 41.389838,
        "longitude": 2.135789,
        "name": "H. Herms"
      }
    },
    {
      "location": {
        "foursquare": "http://foursquare.com/venue/4c1ce1ceeac020a1102d47c2",
        "foursquare_id": "4c1ce1ceeac020a1102d47c2",
        "id": 241,
        "latitude": 41.4396379743824,
        "longitude": 2.19748020172119,
        "name": "H&M"
      }
    },
    {
      "location": {
        "foursquare": "http://foursquare.com/venue/5333870a498e64fd6a50ac56",
        "foursquare_id": "5333870a498e64fd6a50ac56",
        "id": 242,
        "latitude": 41.3850639,
        "longitude": 2.1734035,
        "name": "Montcada i Reixac"
      }
    },
    {
      "location": {
        "foursquare": "http://foursquare.com/venue/4e3c211a52b1a04aff05e15f",
        "foursquare_id": "4e3c211a52b1a04aff05e15f",
        "id": 243,
        "latitude": 41.3853575019958,
        "longitude": 2.17293244681635,
        "name": "I Am"
      }
    },
    {
      "location": {
        "foursquare": "http://foursquare.com/venue/4e5895aa7d8b966a15bd3829",
        "foursquare_id": "4e5895aa7d8b966a15bd3829",
        "id": 244,
        "latitude": 41.386335,
        "longitude": 2.174188,
        "name": "Sky I"
      }
    },
    {
      "location": {
        "foursquare": "http://foursquare.com/venue/4e9f05a277c80ac54c1851f8",
        "foursquare_id": "4e9f05a277c80ac54c1851f8",
        "id": 245,
        "latitude": 41.3870566586182,
        "longitude": 2.17768343621156,
        "name": "Dolç i Salat"
      }
    },
    {
      "location": {
        "foursquare": "http://foursquare.com/venue/4b6d3b92f964a520b36c2ce3",
        "foursquare_id": "4b6d3b92f964a520b36c2ce3",
        "id": 246,
        "latitude": 41.3839970292808,
        "longitude": 2.16704583481146,
        "name": "Facultat de Geografia i Història UB"
      }
    },
    {
      "location": {
        "foursquare": "http://foursquare.com/venue/4fc684a4e4b01da28e239300",
        "foursquare_id": "4fc684a4e4b01da28e239300",
        "id": 247,
        "latitude": 41.3869082722719,
        "longitude": 2.1747751953102,
        "name": "Ski I"
      }
    },
    {
      "location": {
        "foursquare": "http://foursquare.com/venue/4b8bd6fef964a52002ae32e3",
        "foursquare_id": "4b8bd6fef964a52002ae32e3",
        "id": 248,
        "latitude": 41.3837961891423,
        "longitude": 2.17868328094482,
        "name": "METRO Jaume I"
      }
    },
    {
      "location": {
        "foursquare": "http://foursquare.com/venue/4b6d3bc1f964a520be6c2ce3",
        "foursquare_id": "4b6d3bc1f964a520be6c2ce3",
        "id": 249,
        "latitude": 41.38405378303,
        "longitude": 2.16694593429565,
        "name": "Biblioteca de Filosofia, Geografia i Història UB"
      }
    },
    {
      "location": {
        "foursquare": "http://foursquare.com/venue/520893dc11d2a646c62bdc82",
        "foursquare_id": "520893dc11d2a646c62bdc82",
        "id": 250,
        "latitude": 41.3827121913918,
        "longitude": 2.17728990087662,
        "name": "Carrer Jaume I"
      }
    },
    {
      "location": {
        "foursquare": "http://foursquare.com/venue/4d959c1cdaec224ba9e7013e",
        "foursquare_id": "4d959c1cdaec224ba9e7013e",
        "id": 251,
        "latitude": 41.37778258,
        "longitude": 2.1759841,
        "name": "Tapa I Apat"
      }
    },
    {
      "location": {
        "foursquare": "http://foursquare.com/venue/518ee8f7498ea3bcc1de00b4",
        "foursquare_id": "518ee8f7498ea3bcc1de00b4",
        "id": 252,
        "latitude": 41.38529,
        "longitude": 2.178149,
        "name": "Where am I? Who am I?"
      }
    },
    {
      "location": {
        "foursquare": "http://foursquare.com/venue/4d6e0a2303cba35d80e51bf5",
        "foursquare_id": "4d6e0a2303cba35d80e51bf5",
        "id": 253,
        "latitude": 41.393291,
        "longitude": 2.168304,
        "name": "I Griega"
      }
    },
    {
      "location": {
        "foursquare": "http://foursquare.com/venue/4c0ea78ed64c0f470b8c285d",
        "foursquare_id": "4c0ea78ed64c0f470b8c285d",
        "id": 254,
        "latitude": 41.384485,
        "longitude": 2.1847128868103,
        "name": "Tasca i Vins"
      }
    },
    {
      "location": {
        "foursquare": "http://foursquare.com/venue/4dbd9d5f6a23e294ba49a1b0",
        "foursquare_id": "4dbd9d5f6a23e294ba49a1b0",
        "id": 255,
        "latitude": 41.3842450709849,
        "longitude": 2.15649981113082,
        "name": "Rosses i Torrades"
      }
    },
    {
      "location": {
        "foursquare": "http://foursquare.com/venue/4c2a40778abca593c561fe1f",
        "foursquare_id": "4c2a40778abca593c561fe1f",
        "id": 256,
        "latitude": 41.3821375687434,
        "longitude": 2.17014447335584,
        "name": "100 i MES"
      }
    },
    {
      "location": {
        "foursquare": "http://foursquare.com/venue/4b77e91ff964a52070ae2ee3",
        "foursquare_id": "4b77e91ff964a52070ae2ee3",
        "id": 257,
        "latitude": 41.3832552371765,
        "longitude": 2.17987193934708,
        "name": "Rivera I"
      }
    },
    {
      "location": {
        "foursquare": "http://foursquare.com/venue/4c49ca5bb5eec9b610203aa5",
        "foursquare_id": "4c49ca5bb5eec9b610203aa5",
        "id": 258,
        "latitude": 41.3883303946243,
        "longitude": 2.19370132184556,
        "name": "Parc de Carles I"
      }
    },
    {
      "location": {
        "foursquare": "http://foursquare.com/venue/51e80d69498e1decf983a29c",
        "foursquare_id": "51e80d69498e1decf983a29c",
        "id": 259,
        "latitude": 41.3898881720098,
        "longitude": 2.16183915965199,
        "name": "I Cut"
      }
    },
    {
      "location": {
        "foursquare": "http://foursquare.com/venue/4fcf3d13e4b046dae1f285ce",
        "foursquare_id": "4fcf3d13e4b046dae1f285ce",
        "id": 260,
        "latitude": 41.3841109956983,
        "longitude": 2.16732788380476,
        "name": "Departament d'Antropologia I Historia d'America i Africa"
      }
    },
    {
      "location": {
        "foursquare": "http://foursquare.com/venue/50645bf0e4b0a723936fcc2b",
        "foursquare_id": "50645bf0e4b0a723936fcc2b",
        "id": 261,
        "latitude": 41.394767,
        "longitude": 2.165621,
        "name": "I&IMS"
      }
    },
    {
      "location": {
        "foursquare": "http://foursquare.com/venue/525e93f0498e2c14b9843839",
        "foursquare_id": "525e93f0498e2c14b9843839",
        "id": 262,
        "latitude": 41.3770845140827,
        "longitude": 2.1607933074125,
        "name": "i do"
      }
    },
    {
      "location": {
        "foursquare": "http://foursquare.com/venue/5254617011d25753fee12bb2",
        "foursquare_id": "5254617011d25753fee12bb2",
        "id": 263,
        "latitude": 41.385731,
        "longitude": 2.180279,
        "name": "Metro Juame I"
      }
    },
    {
      "location": {
        "foursquare": "http://foursquare.com/venue/51e5801c498e3bbf11863080",
        "foursquare_id": "51e5801c498e3bbf11863080",
        "id": 264,
        "latitude": 41.380454,
        "longitude": 2.178545,
        "name": "Fundació Ferrer i Guàrdia"
      }
    },
    {
      "location": {
        "foursquare": "http://foursquare.com/venue/52ce973011d29b037dd3ba78",
        "foursquare_id": "52ce973011d29b037dd3ba78",
        "id": 265,
        "latitude": 41.3914031169663,
        "longitude": 2.16575412519024,
        "name": "Casa Lleó i Morera"
      }
    },
    {
      "location": {
        "foursquare": "http://foursquare.com/venue/4e9dc46ecc2132d67d62f930",
        "foursquare_id": "4e9dc46ecc2132d67d62f930",
        "id": 266,
        "latitude": 41.377697,
        "longitude": 2.168962,
        "name": "Yonquilandia I"
      }
    },
    {
      "location": {
        "foursquare": "http://foursquare.com/venue/4ff1df64e4b0b29eb21c317b",
        "foursquare_id": "4ff1df64e4b0b29eb21c317b",
        "id": 267,
        "latitude": 41.400574657572,
        "longitude": 2.16795164482833,
        "name": "I-man"
      }
    },
    {
      "location": {
        "foursquare": "http://foursquare.com/venue/4be5e5e3910020a188abd314",
        "foursquare_id": "4be5e5e3910020a188abd314",
        "id": 268,
        "latitude": 41.3934952870139,
        "longitude": 2.17177596870818,
        "name": "Tasca I Vins"
      }
    },
    {
      "location": {
        "foursquare": "http://foursquare.com/venue/521c613711d2e666dea1544b",
        "foursquare_id": "521c613711d2e666dea1544b",
        "id": 269,
        "latitude": 41.391629,
        "longitude": 2.182623,
        "name": "Pà i Café"
      }
    },
    {
      "location": {
        "foursquare": "http://foursquare.com/venue/4fd4631fe4b013c581020d89",
        "foursquare_id": "4fd4631fe4b013c581020d89",
        "id": 270,
        "latitude": 41.37505,
        "longitude": 2.181522,
        "name": "Paula I"
      }
    },
    {
      "location": {
        "foursquare": "http://foursquare.com/venue/4dcbb3577d8b84bcd5593d83",
        "foursquare_id": "4dcbb3577d8b84bcd5593d83",
        "id": 271,
        "latitude": 41.3834480155698,
        "longitude": 2.18183496354758,
        "name": "J. Miro"
      }
    },
    {
      "location": {
        "foursquare": "http://foursquare.com/venue/4e0ee2d5fa76d62f444d2a62",
        "foursquare_id": "4e0ee2d5fa76d62f444d2a62",
        "id": 272,
        "latitude": 41.3908195752325,
        "longitude": 2.18354368016529,
        "name": "Peluqueria J."
      }
    },
    {
      "location": {
        "foursquare": "http://foursquare.com/venue/4cd52719dfb4a1cdfc64575c",
        "foursquare_id": "4cd52719dfb4a1cdfc64575c",
        "id": 273,
        "latitude": 41.386193,
        "longitude": 2.178221,
        "name": "Peixos J. Arrom"
      }
    },
    {
      "location": {
        "foursquare": "http://foursquare.com/venue/4cb047d9c5e6a1cd6eadd3f6",
        "foursquare_id": "4cb047d9c5e6a1cd6eadd3f6",
        "id": 274,
        "latitude": 41.3863607034704,
        "longitude": 2.18479646020834,
        "name": "Jaime J. Renobell"
      }
    },
    {
      "location": {
        "foursquare": "http://foursquare.com/venue/51b60f2b498e2cb88f644f48",
        "foursquare_id": "51b60f2b498e2cb88f644f48",
        "id": 275,
        "latitude": 41.3870582580566,
        "longitude": 2.18252038955688,
        "name": "Electricidad J. Argerich"
      }
    },
    {
      "location": {
        "foursquare": "http://foursquare.com/venue/4cf3f499cc61a35d63f4229e",
        "foursquare_id": "4cf3f499cc61a35d63f4229e",
        "id": 276,
        "latitude": 41.453268,
        "longitude": 2.208576,
        "name": "J"
      }
    },
    {
      "location": {
        "foursquare": "http://foursquare.com/venue/4e512660e4cdc76dc9c87c90",
        "foursquare_id": "4e512660e4cdc76dc9c87c90",
        "id": 277,
        "latitude": 41.3759910991277,
        "longitude": 2.15975947279409,
        "name": "J&P's"
      }
    },
    {
      "location": {
        "foursquare": "http://foursquare.com/venue/4bff591a4e5d0f47940d7e1f",
        "foursquare_id": "4bff591a4e5d0f47940d7e1f",
        "id": 278,
        "latitude": 41.3993114391562,
        "longitude": 2.19017277000476,
        "name": "J. Navarro Florista"
      }
    },
    {
      "location": {
        "foursquare": "http://foursquare.com/venue/4c6fbea69c6d6dcb9958d07a",
        "foursquare_id": "4c6fbea69c6d6dcb9958d07a",
        "id": 279,
        "latitude": 41.401729,
        "longitude": 2.153518,
        "name": "J&M"
      }
    },
    {
      "location": {
        "foursquare": "http://foursquare.com/venue/52939258498ed70b0774e8a5",
        "foursquare_id": "52939258498ed70b0774e8a5",
        "id": 280,
        "latitude": 41.375765,
        "longitude": 2.144418,
        "name": "J. Deulofeu"
      }
    },
    {
      "location": {
        "foursquare": "http://foursquare.com/venue/4f15985ee4b045626b42fccb",
        "foursquare_id": "4f15985ee4b045626b42fccb",
        "id": 281,
        "latitude": 41.3762776233307,
        "longitude": 2.16916080620663,
        "name": "Farmacia J. Salvador"
      }
    },
    {
      "location": {
        "foursquare": "http://foursquare.com/venue/4ba1ec52f964a52011d237e3",
        "foursquare_id": "4ba1ec52f964a52011d237e3",
        "id": 282,
        "latitude": 41.390018,
        "longitude": 2.159674,
        "name": "Forn J. Ginebra"
      }
    },
    {
      "location": {
        "foursquare": "http://foursquare.com/venue/51321086e4b0ed2727a4022d",
        "foursquare_id": "51321086e4b0ed2727a4022d",
        "id": 283,
        "latitude": 41.391519,
        "longitude": 2.152717,
        "name": "5 J"
      }
    },
    {
      "location": {
        "foursquare": "http://foursquare.com/venue/4adcda59f964a5201e4421e3",
        "foursquare_id": "4adcda59f964a5201e4421e3",
        "id": 284,
        "latitude": 41.3937138793934,
        "longitude": 2.14797639730368,
        "name": "J. Roca Joyero"
      }
    },
    {
      "location": {
        "foursquare": "http://foursquare.com/venue/4ffc69e6e4b079b51e710c4d",
        "foursquare_id": "4ffc69e6e4b079b51e710c4d",
        "id": 285,
        "latitude": 41.3773996288065,
        "longitude": 2.15387594317991,
        "name": "Ortopedia J. Ribas"
      }
    },
    {
      "location": {
        "foursquare": "http://foursquare.com/venue/4d3359a5f8c9224ba195b9d2",
        "foursquare_id": "4d3359a5f8c9224ba195b9d2",
        "id": 286,
        "latitude": 41.397833568334,
        "longitude": 2.16093778610229,
        "name": "Churrería J. Balcells"
      }
    },
    {
      "location": {
        "foursquare": "http://foursquare.com/venue/4efdd3a629c201c6fb6312c8",
        "foursquare_id": "4efdd3a629c201c6fb6312c8",
        "id": 287,
        "latitude": 41.3817840052431,
        "longitude": 2.13608852803217,
        "name": "L&j"
      }
    },
    {
      "location": {
        "foursquare": "http://foursquare.com/venue/511a7c4be4b0faff593619dd",
        "foursquare_id": "511a7c4be4b0faff593619dd",
        "id": 288,
        "latitude": 41.388597787063,
        "longitude": 2.15238419623502,
        "name": "Ortodoncia J. Vilarrasa"
      }
    },
    {
      "location": {
        "foursquare": "http://foursquare.com/venue/500045d2e4b0c2bcacd4ce25",
        "foursquare_id": "500045d2e4b0c2bcacd4ce25",
        "id": 289,
        "latitude": 41.3891188372093,
        "longitude": 2.15217348837209,
        "name": "Consulta dentista Dr. J"
      }
    },
    {
      "location": {
        "foursquare": "http://foursquare.com/venue/51a9cddf498e247aaed64e20",
        "foursquare_id": "51a9cddf498e247aaed64e20",
        "id": 290,
        "latitude": 41.408333,
        "longitude": 2.157852,
        "name": "J. Dominguez Polleria-Hueveria"
      }
    },
    {
      "location": {
        "foursquare": "http://foursquare.com/venue/4e9bfd52b63497cdaa6a0ba6",
        "foursquare_id": "4e9bfd52b63497cdaa6a0ba6",
        "id": 291,
        "latitude": 41.402505,
        "longitude": 2.167244,
        "name": "Granja J. Sorigue"
      }
    },
    {
      "location": {
        "foursquare": "http://foursquare.com/venue/4f5e40b0e4b0369072a767bb",
        "foursquare_id": "4f5e40b0e4b0369072a767bb",
        "id": 292,
        "latitude": 41.4012550639728,
        "longitude": 2.20226220800755,
        "name": "J. Pons Tot Bici"
      }
    },
    {
      "location": {
        "foursquare": "http://foursquare.com/venue/513b7422e4b093aa3fe960cd",
        "foursquare_id": "513b7422e4b093aa3fe960cd",
        "id": 293,
        "latitude": 41.4020414491202,
        "longitude": 2.1997365055968,
        "name": "Xarcuters J. Tena"
      }
    },
    {
      "location": {
        "foursquare": "http://foursquare.com/venue/4e9c4dba0aaf5f690f10ab4d",
        "foursquare_id": "4e9c4dba0aaf5f690f10ab4d",
        "id": 294,
        "latitude": 41.3945945428002,
        "longitude": 2.12563709283086,
        "name": "J&J Carniceria"
      }
    },
    {
      "location": {
        "foursquare": "http://foursquare.com/venue/4f50ed5ae4b0c5e18899c314",
        "foursquare_id": "4f50ed5ae4b0c5e18899c314",
        "id": 295,
        "latitude": 41.4054908036796,
        "longitude": 2.13448230057466,
        "name": "J. Brossa Xarcuteria"
      }
    },
    {
      "location": {
        "foursquare": "http://foursquare.com/venue/4daad1845da3ba8a47930840",
        "foursquare_id": "4daad1845da3ba8a47930840",
        "id": 296,
        "latitude": 41.4081149068046,
        "longitude": 2.15794372334758,
        "name": "Pollería J. Domínguez"
      }
    },
    {
      "location": {
        "foursquare": "http://foursquare.com/venue/50ab4f09e4b01ef718876332",
        "foursquare_id": "50ab4f09e4b01ef718876332",
        "id": 297,
        "latitude": 41.4175264340135,
        "longitude": 2.20081207260653,
        "name": "j. roger"
      }
    },
    {
      "location": {
        "foursquare": "http://foursquare.com/venue/4ece911102d5feaa1a2bbda0",
        "foursquare_id": "4ece911102d5feaa1a2bbda0",
        "id": 298,
        "latitude": 41.379541,
        "longitude": 2.136955,
        "name": "Farmacia J. R. Pifarre"
      }
    },
    {
      "location": {
        "foursquare": "http://foursquare.com/venue/4e8a68a1b803fd0aa054508b",
        "foursquare_id": "4e8a68a1b803fd0aa054508b",
        "id": 299,
        "latitude": 41.353274,
        "longitude": 2.170684,
        "name": "Taurus J"
      }
    },
    {
      "location": {
        "foursquare": "http://foursquare.com/venue/51bceb45498e1315f8a8ee73",
        "foursquare_id": "51bceb45498e1315f8a8ee73",
        "id": 300,
        "latitude": 41.3827962137857,
        "longitude": 2.12978381593972,
        "name": "Flat J"
      }
    },
    {
      "location": {
        "foursquare": "http://foursquare.com/venue/4fdbd21de4b0767cc68fefaa",
        "foursquare_id": "4fdbd21de4b0767cc68fefaa",
        "id": 301,
        "latitude": 41.3866779626107,
        "longitude": 2.18397259712219,
        "name": "K+K Hotel Picasso Barcelona"
      }
    },
    {
      "location": {
        "foursquare": "http://foursquare.com/venue/4e0ca8d945dd7a490b08fe33",
        "foursquare_id": "4e0ca8d945dd7a490b08fe33",
        "id": 302,
        "latitude": 41.3841292354842,
        "longitude": 2.1639213415548,
        "name": "Foto K"
      }
    },
    {
      "location": {
        "foursquare": "http://foursquare.com/venue/51580ff0e4b00a2d63af2336",
        "foursquare_id": "51580ff0e4b00a2d63af2336",
        "id": 303,
        "latitude": 41.386754862497,
        "longitude": 2.18411486674571,
        "name": "K+K Hotel Picasso Barcelona Roof Pool"
      }
    },
    {
      "location": {
        "foursquare": "http://foursquare.com/venue/4cb0395475ebb60c8db9c2ad",
        "foursquare_id": "4cb0395475ebb60c8db9c2ad",
        "id": 304,
        "latitude": 41.3860908109282,
        "longitude": 2.16528392750378,
        "name": "Foto K"
      }
    },
    {
      "location": {
        "foursquare": "http://foursquare.com/venue/4efc9ed60e6152f777f0a3f0",
        "foursquare_id": "4efc9ed60e6152f777f0a3f0",
        "id": 305,
        "latitude": 41.381072,
        "longitude": 2.177453,
        "name": "Sol Y K"
      }
    },
    {
      "location": {
        "foursquare": "http://foursquare.com/venue/4f4face0e4b03cdd7a5a7073",
        "foursquare_id": "4f4face0e4b03cdd7a5a7073",
        "id": 306,
        "latitude": 41.3979167178422,
        "longitude": 2.14459529945354,
        "name": "K-Tuin"
      }
    },
    {
      "location": {
        "foursquare": "http://foursquare.com/venue/517a4e4d498ea18ae3f5cb4b",
        "foursquare_id": "517a4e4d498ea18ae3f5cb4b",
        "id": 307,
        "latitude": 41.379127,
        "longitude": 2.172389,
        "name": "J K Asian food store"
      }
    },
    {
      "location": {
        "foursquare": "http://foursquare.com/venue/4bf6f4c05317a593cf29fd7e",
        "foursquare_id": "4bf6f4c05317a593cf29fd7e",
        "id": 308,
        "latitude": 41.3791831752572,
        "longitude": 2.13839967852316,
        "name": "+ K Tapes"
      }
    },
    {
      "location": {
        "foursquare": "http://foursquare.com/venue/4e82ff547ee6cb77878f3574",
        "foursquare_id": "4e82ff547ee6cb77878f3574",
        "id": 309,
        "latitude": 41.4019207821118,
        "longitude": 2.15847141047733,
        "name": "Mer-k-2"
      }
    },
    {
      "location": {
        "foursquare": "http://foursquare.com/venue/4efb0928b63446a50be3fa99",
        "foursquare_id": "4efb0928b63446a50be3fa99",
        "id": 310,
        "latitude": 41.4055685493481,
        "longitude": 2.17821615415563,
        "name": "K-2"
      }
    },
    {
      "location": {
        "foursquare": "http://foursquare.com/venue/4d21d5a486e154818b40c53a",
        "foursquare_id": "4d21d5a486e154818b40c53a",
        "id": 311,
        "latitude": 41.3763279949724,
        "longitude": 2.14789966034618,
        "name": "K-nos"
      }
    },
    {
      "location": {
        "foursquare": "http://foursquare.com/venue/4f86d5a1e4b0af4fd055c29d",
        "foursquare_id": "4f86d5a1e4b0af4fd055c29d",
        "id": 312,
        "latitude": 41.3898088530397,
        "longitude": 2.15522863111635,
        "name": "associaxion k-lite"
      }
    },
    {
      "location": {
        "foursquare": "http://foursquare.com/venue/50be6a2be4b04651f6d68ef8",
        "foursquare_id": "50be6a2be4b04651f6d68ef8",
        "id": 313,
        "latitude": 41.386734,
        "longitude": 2.183808,
        "name": "Room 302 At K+K Picasso Hotel Barçelona"
      }
    },
    {
      "location": {
        "foursquare": "http://foursquare.com/venue/51eb3273498e036d13f45b21",
        "foursquare_id": "51eb3273498e036d13f45b21",
        "id": 314,
        "latitude": 41.3761744428274,
        "longitude": 2.14993563213611,
        "name": "K@Scunder'Home 😇"
      }
    },
    {
      "location": {
        "foursquare": "http://foursquare.com/venue/50705947e4b07504259e506d",
        "foursquare_id": "50705947e4b07504259e506d",
        "id": 315,
        "latitude": 41.407724,
        "longitude": 2.178764,
        "name": "Mer-K-2"
      }
    },
    {
      "location": {
        "foursquare": "http://foursquare.com/venue/52dd590511d2d5132e8eec50",
        "foursquare_id": "52dd590511d2d5132e8eec50",
        "id": 316,
        "latitude": 41.3955237263325,
        "longitude": 2.15008288621902,
        "name": "K-Dreams Group"
      }
    },
    {
      "location": {
        "foursquare": "http://foursquare.com/venue/51eb312d498e401ec329ae29",
        "foursquare_id": "51eb312d498e401ec329ae29",
        "id": 317,
        "latitude": 41.3761744428274,
        "longitude": 2.14993563213611,
        "name": "K@Scunder'Home! 😇"
      }
    },
    {
      "location": {
        "foursquare": "http://foursquare.com/venue/4fac2ac5e4b08541e8d40820",
        "foursquare_id": "4fac2ac5e4b08541e8d40820",
        "id": 318,
        "latitude": 41.3982963562012,
        "longitude": 2.20477294921875,
        "name": "k!vins"
      }
    },
    {
      "location": {
        "foursquare": "http://foursquare.com/venue/4e3a91f2b61c8493db55caef",
        "foursquare_id": "4e3a91f2b61c8493db55caef",
        "id": 319,
        "latitude": 41.375901,
        "longitude": 2.135859,
        "name": "K Nichols Mess Square"
      }
    },
    {
      "location": {
        "foursquare": "http://foursquare.com/venue/4e4a1170cc3f549fa824e641",
        "foursquare_id": "4e4a1170cc3f549fa824e641",
        "id": 320,
        "latitude": 41.3758068785963,
        "longitude": 2.16958545987521,
        "name": "#pispetit"
      }
    },
    {
      "location": {
        "foursquare": "http://foursquare.com/venue/4ff52427e4b0c98ddbef8de1",
        "foursquare_id": "4ff52427e4b0c98ddbef8de1",
        "id": 321,
        "latitude": 41.397182,
        "longitude": 2.128517,
        "name": "K&J's House"
      }
    },
    {
      "location": {
        "foursquare": "http://foursquare.com/venue/4dbdb2ad0cb691071cc01dc9",
        "foursquare_id": "4dbdb2ad0cb691071cc01dc9",
        "id": 322,
        "latitude": 41.3767192183845,
        "longitude": 2.12047699532865,
        "name": "K Dave"
      }
    },
    {
      "location": {
        "foursquare": "http://foursquare.com/venue/4eac9cf8f7906795c35fc7cc",
        "foursquare_id": "4eac9cf8f7906795c35fc7cc",
        "id": 323,
        "latitude": 41.3963880743235,
        "longitude": 2.14011393856442,
        "name": "Casa de K&D"
      }
    },
    {
      "location": {
        "foursquare": "http://foursquare.com/venue/5138a1b2e4b0288544fe04d9",
        "foursquare_id": "5138a1b2e4b0288544fe04d9",
        "id": 324,
        "latitude": 41.424288,
        "longitude": 2.181793,
        "name": "K Korte"
      }
    },
    {
      "location": {
        "foursquare": "http://foursquare.com/venue/4ea7ffc7d3e33e1d4f28e08a",
        "foursquare_id": "4ea7ffc7d3e33e1d4f28e08a",
        "id": 325,
        "latitude": 41.4060350889985,
        "longitude": 2.15975947279409,
        "name": "Vila K"
      }
    },
    {
      "location": {
        "foursquare": "http://foursquare.com/venue/52e8059e11d293292edf12a3",
        "foursquare_id": "52e8059e11d293292edf12a3",
        "id": 326,
        "latitude": 41.375399,
        "longitude": 2.133238,
        "name": "A & K Supermercat 24 H"
      }
    },
    {
      "location": {
        "foursquare": "http://foursquare.com/venue/4edb55ecf5b9213989c76384",
        "foursquare_id": "4edb55ecf5b9213989c76384",
        "id": 327,
        "latitude": 41.4089775085449,
        "longitude": 2.18535232543945,
        "name": "K Nadezhde"
      }
    },
    {
      "location": {
        "foursquare": "http://foursquare.com/venue/51c0a5b9498e8958ad901475",
        "foursquare_id": "51c0a5b9498e8958ad901475",
        "id": 328,
        "latitude": 41.4123954772949,
        "longitude": 2.17833471298218,
        "name": "Oh k guai"
      }
    },
    {
      "location": {
        "foursquare": "http://foursquare.com/venue/4d5e52c729ef236a8dd48a59",
        "foursquare_id": "4d5e52c729ef236a8dd48a59",
        "id": 329,
        "latitude": 41.3984118012488,
        "longitude": 2.126514344481,
        "name": "Tintoreria K"
      }
    },
    {
      "location": {
        "foursquare": "http://foursquare.com/venue/4c17679dc2dfc928d1e8a769",
        "foursquare_id": "4c17679dc2dfc928d1e8a769",
        "id": 330,
        "latitude": 41.3849649632093,
        "longitude": 2.17060032639797,
        "name": "L. T. W Tatoo"
      }
    },
    {
      "location": {
        "foursquare": "http://foursquare.com/venue/4fae5a19e4b0fa27b8591d30",
        "foursquare_id": "4fae5a19e4b0fa27b8591d30",
        "id": 331,
        "latitude": 41.384493,
        "longitude": 2.169235,
        "name": "L Oficina"
      }
    },
    {
      "location": {
        "foursquare": "http://foursquare.com/venue/520da92611d24806711b2dca",
        "foursquare_id": "520da92611d24806711b2dca",
        "id": 332,
        "latitude": 41.3758068785963,
        "longitude": 2.16958545987521,
        "name": "La L"
      }
    },
    {
      "location": {
        "foursquare": "http://foursquare.com/venue/4bae9243f964a5200cc23be3",
        "foursquare_id": "4bae9243f964a5200cc23be3",
        "id": 333,
        "latitude": 41.3841353314437,
        "longitude": 2.18153738469573,
        "name": "L ' Ou Com Balla"
      }
    },
    {
      "location": {
        "foursquare": "http://foursquare.com/venue/4dd4dcd9d4c0e6b33e456835",
        "foursquare_id": "4dd4dcd9d4c0e6b33e456835",
        "id": 334,
        "latitude": 41.394998,
        "longitude": 2.162478,
        "name": "l' oreal"
      }
    },
    {
      "location": {
        "foursquare": "http://foursquare.com/venue/5320adfe498ec10f38706d4a",
        "foursquare_id": "5320adfe498ec10f38706d4a",
        "id": 335,
        "latitude": 41.3767441601513,
        "longitude": 2.1608304977417,
        "name": "L & R Boulangerie"
      }
    },
    {
      "location": {
        "foursquare": "http://foursquare.com/venue/51a1227c498e5fd3ee439142",
        "foursquare_id": "51a1227c498e5fd3ee439142",
        "id": 336,
        "latitude": 41.3958379939025,
        "longitude": 2.16958545987521,
        "name": "L Everest"
      }
    },
    {
      "location": {
        "foursquare": "http://foursquare.com/venue/50c9c885e4b0f94e0bf04df8",
        "foursquare_id": "50c9c885e4b0f94e0bf04df8",
        "id": 337,
        "latitude": 41.383643,
        "longitude": 2.18023,
        "name": "Casa De L' Argent"
      }
    },
    {
      "location": {
        "foursquare": "http://foursquare.com/venue/4e7cb880d22d882fa2daf495",
        "foursquare_id": "4e7cb880d22d882fa2daf495",
        "id": 338,
        "latitude": 41.39464,
        "longitude": 2.15778,
        "name": "L Óptica Universitaria"
      }
    },
    {
      "location": {
        "foursquare": "http://foursquare.com/venue/4c0793510ed3c9283fae797d",
        "foursquare_id": "4c0793510ed3c9283fae797d",
        "id": 339,
        "latitude": 41.396493,
        "longitude": 2.148859,
        "name": "L' Explendid"
      }
    },